{"name":"Behindertenparkplatz","type":"FeatureCollection"
,"features":[
{"type":"Feature","geometry":{"type":"Point","coordinates":[8.54031373615428,47.3659542259892]},"properties":{"Gebührenpflicht":"0","Distanz":"11.5","Adresse":"Bürkliplatz 12","Orientierung":"QPU"}}
,{"type":"Feature","geometry":{"type":"Point","coordinates":[8.54028607918763,47.3659494002903]},"properties":{"Gebührenpflicht":"0","Distanz":"13.6","Adresse":"Bürkliplatz 12","Orientierung":"QPU"}}
,{"type":"Feature","geometry":{"type":"Point","coordinates":[8.54115014158531,47.3754665224687]},"properties":{"Gebührenpflicht":"0","Distanz":"34.2","Adresse":"Bahnhofquai 3a","Orientierung":"QPU"}}
,{"type":"Feature","geometry":{"type":"Point","coordinates":[8.54114665437303,47.3754485655415]},"properties":{"Gebührenpflicht":"0","Distanz":"34.2","Adresse":"Bahnhofquai 3a","Orientierung":"QPU"}}
,{"type":"Feature","geometry":{"type":"Point","coordinates":[8.53043247639476,47.3687187675343]},"properties":{"Gebührenpflicht":"0","Distanz":"15.5","Adresse":"Gerechtigkeitsgasse 31","Orientierung":"LPU"}}
,{"type":"Feature","geometry":{"type":"Point","coordinates":[8.53764813695831,47.3663696972073]},"properties":{"Gebührenpflicht":"0","Distanz":"26.7","Adresse":"Gotthardstrasse 4","Orientierung":"LPU"}}
,{"type":"Feature","geometry":{"type":"Point","coordinates":[8.53850575609462,47.3656452585945]},"properties":{"Gebührenpflicht":"0","Distanz":"10.5","Adresse":"Claridenstrasse 3","Orientierung":"LPU"}}
,{"type":"Feature","geometry":{"type":"Point","coordinates":[8.53854774221688,47.3657197366578]},"properties":{"Gebührenpflicht":"0","Distanz":"11.5","Adresse":"Claridenstrasse 3","Orientierung":"LPU"}}
,{"type":"Feature","geometry":{"type":"Point","coordinates":[8.53857904595749,47.365678751575]},"properties":{"Gebührenpflicht":"0","Distanz":"13.1","Adresse":"Claridenstrasse 2","Orientierung":"LPU"}}
,{"type":"Feature","geometry":{"type":"Point","coordinates":[8.53847550605159,47.365686376075]},"properties":{"Gebührenpflicht":"0","Distanz":"6.2","Adresse":"Claridenstrasse 3","Orientierung":"LPU"}}
,{"type":"Feature","geometry":{"type":"Point","coordinates":[8.53858868671121,47.365534971291]},"properties":{"Gebührenpflicht":"0","Distanz":"23.7","Adresse":"Claridenstrasse 3","Orientierung":"LPU"}}
,{"type":"Feature","geometry":{"type":"Point","coordinates":[8.53861374941621,47.3654970438583]},"properties":{"Gebührenpflicht":"0","Distanz":"28.2","Adresse":"Claridenstrasse 3","Orientierung":"LPU"}}
,{"type":"Feature","geometry":{"type":"Point","coordinates":[8.53844525563952,47.3657274937745]},"properties":{"Gebührenpflicht":"0","Distanz":"4.5","Adresse":"Claridenstrasse 3","Orientierung":"LPU"}}
,{"type":"Feature","geometry":{"type":"Point","coordinates":[8.53122089003757,47.364338721324]},"properties":{"Gebührenpflicht":"0","Distanz":"11.8","Adresse":"Tessinerplatz 11","Orientierung":"QPU"}}
,{"type":"Feature","geometry":{"type":"Point","coordinates":[8.52744488365393,47.3389225861869]},"properties":{"Gebührenpflicht":"0","Distanz":"8.4","Adresse":"Balberstrasse 47","Orientierung":"LPU"}}
,{"type":"Feature","geometry":{"type":"Point","coordinates":[8.52747082030482,47.3389592870404]},"properties":{"Gebührenpflicht":"0","Distanz":"10.5","Adresse":"Balberstrasse 47","Orientierung":"LPU"}}
,{"type":"Feature","geometry":{"type":"Point","coordinates":[8.52873348479055,47.3330924309573]},"properties":{"Gebührenpflicht":"0","Distanz":"15.3","Adresse":"Dangelstrasse 19","Orientierung":"LPU"}}
,{"type":"Feature","geometry":{"type":"Point","coordinates":[8.52503929464118,47.3594369421357]},"properties":{"Gebührenpflicht":"0","Distanz":"9.7","Adresse":"Engimattstrasse 17","Orientierung":"LPU"}}
,{"type":"Feature","geometry":{"type":"Point","coordinates":[8.51784258602171,47.3351873671254]},"properties":{"Gebührenpflicht":"0","Distanz":"8.9","Adresse":"Frymannstrasse 21","Orientierung":"LPU"}}
,{"type":"Feature","geometry":{"type":"Point","coordinates":[8.51679760789064,47.3290182978986]},"properties":{"Gebührenpflicht":"0","Distanz":"5.4","Adresse":"Hüslibachstrasse 98","Orientierung":"LPU"}}
,{"type":"Feature","geometry":{"type":"Point","coordinates":[8.52376454842684,47.3598599292667]},"properties":{"Gebührenpflicht":"0","Distanz":"9.9","Adresse":"Lessingstrasse 3","Orientierung":"LPU"}}
,{"type":"Feature","geometry":{"type":"Point","coordinates":[8.57197206554229,47.4039010308724]},"properties":{"Gebührenpflicht":"0","Distanz":"18.5","Adresse":"Winterthurerstrasse 519","Orientierung":"LPU"}}
,{"type":"Feature","geometry":{"type":"Point","coordinates":[8.56351195907265,47.4102465903119]},"properties":{"Gebührenpflicht":"0","Distanz":"28.5","Adresse":"Saatlenstrasse 240","Orientierung":"LPU"}}
,{"type":"Feature","geometry":{"type":"Point","coordinates":[8.56922871504406,47.4168411822904]},"properties":{"Gebührenpflicht":"0","Distanz":"5.5","Adresse":"Opfikonstrasse 176","Orientierung":"LPU"}}
,{"type":"Feature","geometry":{"type":"Point","coordinates":[8.56961698777158,47.4084883824978]},"properties":{"Gebührenpflicht":"0","Distanz":"14.9","Adresse":"Luegislandstrasse 134","Orientierung":"LPU"}}
,{"type":"Feature","geometry":{"type":"Point","coordinates":[8.5509217559471,47.4041489848365]},"properties":{"Gebührenpflicht":"0","Distanz":"10","Adresse":"Gorwiden 2","Orientierung":"LPU"}}
,{"type":"Feature","geometry":{"type":"Point","coordinates":[8.55085075486123,47.4041548418947]},"properties":{"Gebührenpflicht":"0","Distanz":"9.5","Adresse":"Gorwiden 2","Orientierung":"LPU"}}
,{"type":"Feature","geometry":{"type":"Point","coordinates":[8.52871412297673,47.4110939647595]},"properties":{"Gebührenpflicht":"0","Distanz":"26.8","Adresse":"Regensbergstrasse 262","Orientierung":"LPU"}}
,{"type":"Feature","geometry":{"type":"Point","coordinates":[8.54437875281004,47.4073538555506]},"properties":{"Gebührenpflicht":"0","Distanz":"15.5","Adresse":"Regensbergstrasse 123","Orientierung":"LPU"}}
,{"type":"Feature","geometry":{"type":"Point","coordinates":[8.54458359172397,47.4072849836228]},"properties":{"Gebührenpflicht":"0","Distanz":"15.2","Adresse":"Regensbergstrasse 121","Orientierung":"LPU"}}
,{"type":"Feature","geometry":{"type":"Point","coordinates":[8.54424523745618,47.4096965660344]},"properties":{"Gebührenpflicht":"0","Distanz":"11.6","Adresse":"Querstrasse 16","Orientierung":"QPU"}}
,{"type":"Feature","geometry":{"type":"Point","coordinates":[8.54428098930195,47.4097055362482]},"properties":{"Gebührenpflicht":"0","Distanz":"9.2","Adresse":"Querstrasse 16","Orientierung":"QPU"}}
,{"type":"Feature","geometry":{"type":"Point","coordinates":[8.55738582150851,47.4088925525912]},"properties":{"Gebührenpflicht":"0","Distanz":"15.2","Adresse":"Greifenseestrasse 50","Orientierung":"LPU"}}
,{"type":"Feature","geometry":{"type":"Point","coordinates":[8.55388364816933,47.40894858338]},"properties":{"Gebührenpflicht":"0","Distanz":"16.5","Adresse":"Greifenseestrasse 10a","Orientierung":"LPU"}}
,{"type":"Feature","geometry":{"type":"Point","coordinates":[8.53921872965354,47.4231272938734]},"properties":{"Gebührenpflicht":"0","Distanz":"37.5","Adresse":"Birchstrasse 408","Orientierung":"QPU"}}
,{"type":"Feature","geometry":{"type":"Point","coordinates":[8.52731583277529,47.393418333166]},"properties":{"Gebührenpflicht":"0","Distanz":"9.9","Adresse":"Röschibachstrasse 63","Orientierung":"LPU"}}
,{"type":"Feature","geometry":{"type":"Point","coordinates":[8.48581967764188,47.3846429639163]},"properties":{"Gebührenpflicht":"0","Distanz":"8.5","Adresse":"Zwyssigstrasse 2","Orientierung":"LPU"}}
,{"type":"Feature","geometry":{"type":"Point","coordinates":[8.4857929481155,47.3846007833688]},"properties":{"Gebührenpflicht":"0","Distanz":"7.1","Adresse":"Zwyssigstrasse 2","Orientierung":"LPU"}}
,{"type":"Feature","geometry":{"type":"Point","coordinates":[8.48828691603429,47.3899703298852]},"properties":{"Gebührenpflicht":"0","Distanz":"8.3","Adresse":"Bristenstrasse 17","Orientierung":"LPU"}}
,{"type":"Feature","geometry":{"type":"Point","coordinates":[8.55749218459045,47.358268593842]},"properties":{"Gebührenpflicht":"0","Distanz":"8.7","Adresse":"Mühlebachstrasse 137","Orientierung":"LPU"}}
,{"type":"Feature","geometry":{"type":"Point","coordinates":[8.55745910305106,47.3583127183448]},"properties":{"Gebührenpflicht":"0","Distanz":"10.4","Adresse":"Mühlebachstrasse 137","Orientierung":"LPU"}}
,{"type":"Feature","geometry":{"type":"Point","coordinates":[8.57477351585779,47.4033506390699]},"properties":{"Gebührenpflicht":"0","Distanz":"25.8","Adresse":"Stettbachstrasse 60","Orientierung":"QPU"}}
,{"type":"Feature","geometry":{"type":"Point","coordinates":[8.55431386658451,47.3700631304972]},"properties":{"Gebührenpflicht":"0","Distanz":"10.1","Adresse":"Wilfriedstrasse 5","Orientierung":"LPU"}}
,{"type":"Feature","geometry":{"type":"Point","coordinates":[8.55240934906633,47.3770019332629]},"properties":{"Gebührenpflicht":"0","Distanz":"19.7","Adresse":"Sternwartstrasse 14","Orientierung":"LPU"}}
,{"type":"Feature","geometry":{"type":"Point","coordinates":[8.55339708469253,47.3795287510611]},"properties":{"Gebührenpflicht":"0","Distanz":"9.1","Adresse":"Hochstrasse 44","Orientierung":"LPU"}}
,{"type":"Feature","geometry":{"type":"Point","coordinates":[8.55527566829142,47.3816701619097]},"properties":{"Gebührenpflicht":"0","Distanz":"12.8","Adresse":"Hadlaubstrasse 4","Orientierung":"LPU"}}
,{"type":"Feature","geometry":{"type":"Point","coordinates":[8.56765836256211,47.3605678103871]},"properties":{"Gebührenpflicht":"0","Distanz":"14.7","Adresse":"Fröbelstrasse 33a","Orientierung":"LPU"}}
,{"type":"Feature","geometry":{"type":"Point","coordinates":[8.51654220646811,47.3707798187533]},"properties":{"Gebührenpflicht":"0","Distanz":"15.9","Adresse":"Birmensdorferstrasse 198","Orientierung":"LPU"}}
,{"type":"Feature","geometry":{"type":"Point","coordinates":[8.50174701561788,47.3614334689394]},"properties":{"Gebührenpflicht":"0","Distanz":"11.7","Adresse":"Friesenberghalde 8","Orientierung":"LPU"}}
,{"type":"Feature","geometry":{"type":"Point","coordinates":[8.50180565229572,47.3613956790354]},"properties":{"Gebührenpflicht":"0","Distanz":"14.5","Adresse":"Friesenberghalde 8","Orientierung":"LPU"}}
,{"type":"Feature","geometry":{"type":"Point","coordinates":[8.50192114896436,47.3613201155067]},"properties":{"Gebührenpflicht":"0","Distanz":"15.8","Adresse":"Friesenberghalde 3","Orientierung":"LPU"}}
,{"type":"Feature","geometry":{"type":"Point","coordinates":[8.52079616308413,47.3644143526421]},"properties":{"Gebührenpflicht":"0","Distanz":"18.7","Adresse":"Uetlibergstrasse 25","Orientierung":"LPU"}}
,{"type":"Feature","geometry":{"type":"Point","coordinates":[8.50995985623909,47.3778592653446]},"properties":{"Gebührenpflicht":"0","Distanz":"12.1","Adresse":"Hardaustrasse 2","Orientierung":"LPU"}}
,{"type":"Feature","geometry":{"type":"Point","coordinates":[8.50983302073724,47.3777607403106]},"properties":{"Gebührenpflicht":"0","Distanz":"14.8","Adresse":"Zurlindenstrasse 302","Orientierung":"LPU"}}
,{"type":"Feature","geometry":{"type":"Point","coordinates":[8.54163893312996,47.3852523530014]},"properties":{"Gebührenpflicht":"0","Distanz":"15.4","Adresse":"Kurvenstrasse 39","Orientierung":"LPU"}}
,{"type":"Feature","geometry":{"type":"Point","coordinates":[8.53563919847379,47.3937470084705]},"properties":{"Gebührenpflicht":"0","Distanz":"9.8","Adresse":"Seminarstrasse 48","Orientierung":"LPU"}}
,{"type":"Feature","geometry":{"type":"Point","coordinates":[8.54566456118558,47.3846459223838]},"properties":{"Gebührenpflicht":"0","Distanz":"8.3","Adresse":"Stapferstrasse 35","Orientierung":"LPU"}}
,{"type":"Feature","geometry":{"type":"Point","coordinates":[8.54602995177505,47.3868090054478]},"properties":{"Gebührenpflicht":"0","Distanz":"8.2","Adresse":"Stolzestrasse 9","Orientierung":"LPU"}}
,{"type":"Feature","geometry":{"type":"Point","coordinates":[8.54149208666021,47.3953377417155]},"properties":{"Gebührenpflicht":"0","Distanz":"9.7","Adresse":"Stüssistrasse 87","Orientierung":"LPU"}}
,{"type":"Feature","geometry":{"type":"Point","coordinates":[8.54957469500696,47.3828201095784]},"properties":{"Gebührenpflicht":"0","Distanz":"10.5","Adresse":"Vogelsangstrasse 18","Orientierung":"LPU"}}
,{"type":"Feature","geometry":{"type":"Point","coordinates":[8.54662646906461,47.3741979817114]},"properties":{"Gebührenpflicht":"0","Distanz":"4.2","Adresse":"Hirschengraben 48","Orientierung":"LPU"}}
,{"type":"Feature","geometry":{"type":"Point","coordinates":[8.54738569775965,47.371631190349]},"properties":{"Gebührenpflicht":"0","Distanz":"30.7","Adresse":"Hirschengraben 13","Orientierung":"LPU"}}
,{"type":"Feature","geometry":{"type":"Point","coordinates":[8.53693577997358,47.3719471770342]},"properties":{"Gebührenpflicht":"0","Distanz":"4.7","Adresse":"Pelikanstrasse 10","Orientierung":"LPU"}}
,{"type":"Feature","geometry":{"type":"Point","coordinates":[8.53698820545345,47.3719835679143]},"properties":{"Gebührenpflicht":"0","Distanz":"8.2","Adresse":"Pelikanstrasse 10","Orientierung":"LPU"}}
,{"type":"Feature","geometry":{"type":"Point","coordinates":[8.54954640238958,47.4103685651612]},"properties":{"Gebührenpflicht":"0","Distanz":"38","Adresse":"Thurgauerstrasse 7","Orientierung":"SCHPU"}}
,{"type":"Feature","geometry":{"type":"Point","coordinates":[8.54978539706311,47.4103370009931]},"properties":{"Gebührenpflicht":"0","Distanz":"39.8","Adresse":"Thurgauerstrasse 7","Orientierung":"SCHPU"}}
,{"type":"Feature","geometry":{"type":"Point","coordinates":[8.53620073982867,47.3823266925235]},"properties":{"Gebührenpflicht":"0","Distanz":"13.7","Adresse":"Ausstellungsstrasse 41","Orientierung":"LPU"}}
,{"type":"Feature","geometry":{"type":"Point","coordinates":[8.53625527282872,47.3822873407353]},"properties":{"Gebührenpflicht":"0","Distanz":"13.8","Adresse":"Ausstellungsstrasse 39","Orientierung":"LPU"}}
,{"type":"Feature","geometry":{"type":"Point","coordinates":[8.5360916735826,47.3824053957971]},"properties":{"Gebührenpflicht":"0","Distanz":"14.2","Adresse":"Ausstellungsstrasse 41","Orientierung":"LPU"}}
,{"type":"Feature","geometry":{"type":"Point","coordinates":[8.53614620674817,47.3823660442854]},"properties":{"Gebührenpflicht":"0","Distanz":"12.6","Adresse":"Ausstellungsstrasse 41","Orientierung":"LPU"}}
,{"type":"Feature","geometry":{"type":"Point","coordinates":[8.52825172066841,47.3824868810433]},"properties":{"Gebührenpflicht":"0","Distanz":"25.7","Adresse":"Röntgenstrasse 16","Orientierung":"LPU"}}
,{"type":"Feature","geometry":{"type":"Point","coordinates":[8.52820423136921,47.3825389278974]},"properties":{"Gebührenpflicht":"0","Distanz":"21","Adresse":"Röntgenstrasse 16","Orientierung":"LPU"}}
,{"type":"Feature","geometry":{"type":"Point","coordinates":[8.53545544145853,47.3772080299776]},"properties":{"Gebührenpflicht":"0","Distanz":"23.3","Adresse":"Kasernenstrasse 97","Orientierung":"SCHPU"}}
,{"type":"Feature","geometry":{"type":"Point","coordinates":[8.53543156181648,47.3771807829581]},"properties":{"Gebührenpflicht":"0","Distanz":"26.8","Adresse":"Kasernenstrasse 97","Orientierung":"SCHPU"}}
,{"type":"Feature","geometry":{"type":"Point","coordinates":[8.52802979459685,47.3738317068985]},"properties":{"Gebührenpflicht":"0","Distanz":"6.8","Adresse":"St. Jakobstrasse 7","Orientierung":"LPU"}}
,{"type":"Feature","geometry":{"type":"Point","coordinates":[8.5272711471662,47.3765271118492]},"properties":{"Gebührenpflicht":"0","Distanz":"14.7","Adresse":"Molkenstrasse 8","Orientierung":"SCHPU"}}
,{"type":"Feature","geometry":{"type":"Point","coordinates":[8.5272015152628,47.3764388134271]},"properties":{"Gebührenpflicht":"0","Distanz":"19.3","Adresse":"Molkenstrasse 9","Orientierung":"QPU"}}
,{"type":"Feature","geometry":{"type":"Point","coordinates":[8.52303950337835,47.3772748259715]},"properties":{"Gebührenpflicht":"0","Distanz":"5.5","Adresse":"Stauffacherstrasse 141","Orientierung":"LPU"}}
,{"type":"Feature","geometry":{"type":"Point","coordinates":[8.52297446084115,47.3772975680541]},"properties":{"Gebührenpflicht":"0","Distanz":"5.2","Adresse":"Stauffacherstrasse 141","Orientierung":"LPU"}}
,{"type":"Feature","geometry":{"type":"Point","coordinates":[8.51655115955216,47.3808857643166]},"properties":{"Gebührenpflicht":"0","Distanz":"5.3","Adresse":"Ernastrasse 22","Orientierung":"LPU"}}
,{"type":"Feature","geometry":{"type":"Point","coordinates":[8.51649145585336,47.3809160626723]},"properties":{"Gebührenpflicht":"0","Distanz":"9","Adresse":"Ernastrasse 22","Orientierung":"LPU"}}
,{"type":"Feature","geometry":{"type":"Point","coordinates":[8.51188321015821,47.3823403240032]},"properties":{"Gebührenpflicht":"0","Distanz":"10.2","Adresse":"Eichbühlstrasse 19","Orientierung":"LPU"}}
,{"type":"Feature","geometry":{"type":"Point","coordinates":[8.53908431094832,47.3903423819516]},"properties":{"Gebührenpflicht":"0","Distanz":"6.6","Adresse":"Schaffhauserstrasse 32","Orientierung":"LPU"}}
,{"type":"Feature","geometry":{"type":"Point","coordinates":[8.52686202644937,47.3723907435019]},"properties":{"Gebührenpflicht":"0","Distanz":"12","Adresse":"Werdstrasse 72","Orientierung":"LPU"}}
,{"type":"Feature","geometry":{"type":"Point","coordinates":[8.56004194720864,47.3755060091739]},"properties":{"Gebührenpflicht":"0","Distanz":"8.8","Adresse":"Bergstrasse 4","Orientierung":"LPU"}}
,{"type":"Feature","geometry":{"type":"Point","coordinates":[8.5560853884926,47.3818700701427]},"properties":{"Gebührenpflicht":"0","Distanz":"16.3","Adresse":"Im Schilf 6","Orientierung":"LPU"}}
,{"type":"Feature","geometry":{"type":"Point","coordinates":[8.55458616260028,47.3827750994646]},"properties":{"Gebührenpflicht":"0","Distanz":"11","Adresse":"Hadlaubstrasse 21","Orientierung":"LPU"}}
,{"type":"Feature","geometry":{"type":"Point","coordinates":[8.5230791765539,47.3711271836843]},"properties":{"Gebührenpflicht":"0","Distanz":"8.3","Adresse":"Seebahnstrasse 85","Orientierung":"LPU"}}
,{"type":"Feature","geometry":{"type":"Point","coordinates":[8.55465785557814,47.3573810164256]},"properties":{"Gebührenpflicht":"0","Distanz":"17.5","Adresse":"Dahliastrasse 16","Orientierung":"LPU"}}
,{"type":"Feature","geometry":{"type":"Point","coordinates":[8.52111802292749,47.3892565896934]},"properties":{"Gebührenpflicht":"0","Distanz":"24.8","Adresse":"Hardstrasse 301","Orientierung":"SCHPU"}}
,{"type":"Feature","geometry":{"type":"Point","coordinates":[8.52114817949826,47.3892881939932]},"properties":{"Gebührenpflicht":"0","Distanz":"23.7","Adresse":"Hardstrasse 301","Orientierung":"SCHPU"}}
,{"type":"Feature","geometry":{"type":"Point","coordinates":[8.52105771022283,47.3891933810663]},"properties":{"Gebührenpflicht":"0","Distanz":"28.7","Adresse":"Hardstrasse 301","Orientierung":"SCHPU"}}
,{"type":"Feature","geometry":{"type":"Point","coordinates":[8.52108786672218,47.3892249853823]},"properties":{"Gebührenpflicht":"0","Distanz":"26.5","Adresse":"Hardstrasse 301","Orientierung":"SCHPU"}}
,{"type":"Feature","geometry":{"type":"Point","coordinates":[8.53031751424884,47.3402146598271]},"properties":{"Gebührenpflicht":"0","Distanz":"22.8","Adresse":"Alte Kalchbühlstrasse 15","Orientierung":"QPU"}}
,{"type":"Feature","geometry":{"type":"Point","coordinates":[8.54303155794185,47.379954720819]},"properties":{"Gebührenpflicht":"0","Distanz":"14.1","Adresse":"Stampfenbachstrasse 40","Orientierung":"SCHPU"}}
,{"type":"Feature","geometry":{"type":"Point","coordinates":[8.54301894314072,47.3799774315266]},"properties":{"Gebührenpflicht":"0","Distanz":"15.1","Adresse":"Stampfenbachstrasse 40","Orientierung":"SCHPU"}}
,{"type":"Feature","geometry":{"type":"Point","coordinates":[8.50539395859117,47.3824664100308]},"properties":{"Gebührenpflicht":"0","Distanz":"36.9","Adresse":"Herdernstrasse 39","Orientierung":"QPU"}}
,{"type":"Feature","geometry":{"type":"Point","coordinates":[8.5053704190681,47.3824403275346]},"properties":{"Gebührenpflicht":"0","Distanz":"39.5","Adresse":"Herdernstrasse 39","Orientierung":"QPU"}}
,{"type":"Feature","geometry":{"type":"Point","coordinates":[8.50548811790509,47.3825707401821]},"properties":{"Gebührenpflicht":"0","Distanz":"28.7","Adresse":"Herdernstrasse 39","Orientierung":"QPU"}}
,{"type":"Feature","geometry":{"type":"Point","coordinates":[8.50541749847125,47.382492492743]},"properties":{"Gebührenpflicht":"0","Distanz":"34.6","Adresse":"Herdernstrasse 39","Orientierung":"QPU"}}
,{"type":"Feature","geometry":{"type":"Point","coordinates":[8.50546457796111,47.3825446577083]},"properties":{"Gebührenpflicht":"0","Distanz":"30.4","Adresse":"Herdernstrasse 39","Orientierung":"QPU"}}
,{"type":"Feature","geometry":{"type":"Point","coordinates":[8.5053468792381,47.3824142450367]},"properties":{"Gebührenpflicht":"0","Distanz":"42.1","Adresse":"Herdernstrasse 39","Orientierung":"QPU"}}
,{"type":"Feature","geometry":{"type":"Point","coordinates":[8.50532333976063,47.3823881625309]},"properties":{"Gebührenpflicht":"0","Distanz":"43.9","Adresse":"Herdernstrasse 21","Orientierung":"QPU"}}
,{"type":"Feature","geometry":{"type":"Point","coordinates":[8.50529979997174,47.3823620797994]},"properties":{"Gebührenpflicht":"0","Distanz":"41.7","Adresse":"Herdernstrasse 21","Orientierung":"QPU"}}
,{"type":"Feature","geometry":{"type":"Point","coordinates":[8.50522918108507,47.3822838322447]},"properties":{"Gebührenpflicht":"0","Distanz":"32.6","Adresse":"Bienenstrasse 45","Orientierung":"QPU"}}
,{"type":"Feature","geometry":{"type":"Point","coordinates":[8.50544103836964,47.3825185752265]},"properties":{"Gebührenpflicht":"0","Distanz":"32.4","Adresse":"Herdernstrasse 39","Orientierung":"QPU"}}
,{"type":"Feature","geometry":{"type":"Point","coordinates":[8.50527626021015,47.382335997287]},"properties":{"Gebührenpflicht":"0","Distanz":"39.4","Adresse":"Bienenstrasse 45","Orientierung":"QPU"}}
,{"type":"Feature","geometry":{"type":"Point","coordinates":[8.50525272080107,47.3823099147667]},"properties":{"Gebührenpflicht":"0","Distanz":"36","Adresse":"Bienenstrasse 45","Orientierung":"QPU"}}
,{"type":"Feature","geometry":{"type":"Point","coordinates":[8.48947862887397,47.3907727038865]},"properties":{"Gebührenpflicht":"0","Distanz":"26.7","Adresse":"Hohlstrasse 559","Orientierung":"SCHPU"}}
,{"type":"Feature","geometry":{"type":"Point","coordinates":[8.48957011139198,47.3908176925363]},"properties":{"Gebührenpflicht":"0","Distanz":"27.1","Adresse":"Hohlstrasse 554","Orientierung":"QPU"}}
,{"type":"Feature","geometry":{"type":"Point","coordinates":[8.56209519332307,47.3700205707278]},"properties":{"Gebührenpflicht":"0","Distanz":"12.8","Adresse":"Rütistrasse 28","Orientierung":"LPU"}}
,{"type":"Feature","geometry":{"type":"Point","coordinates":[8.53703413729799,47.3750037049615]},"properties":{"Gebührenpflicht":"0","Distanz":"3.9","Adresse":"Gerbergasse 4","Orientierung":"LPU"}}
,{"type":"Feature","geometry":{"type":"Point","coordinates":[8.57905439495482,47.3672690470184]},"properties":{"Gebührenpflicht":"0","Distanz":"15.8","Adresse":"Degenriedstrasse 135","Orientierung":"LPU"}}
,{"type":"Feature","geometry":{"type":"Point","coordinates":[8.57900162626939,47.367317855601]},"properties":{"Gebührenpflicht":"0","Distanz":"14.5","Adresse":"Degenriedstrasse 135","Orientierung":"LPU"}}
,{"type":"Feature","geometry":{"type":"Point","coordinates":[8.54997186345735,47.3605070959842]},"properties":{"Gebührenpflicht":"0","Distanz":"10.8","Adresse":"Mainaustrasse 24","Orientierung":"LPU"}}
,{"type":"Feature","geometry":{"type":"Point","coordinates":[8.56089477970126,47.3664442932818]},"properties":{"Gebührenpflicht":"0","Distanz":"8.5","Adresse":"Streulistrasse 10","Orientierung":"LPU"}}
,{"type":"Feature","geometry":{"type":"Point","coordinates":[8.57098070739259,47.3819486529518]},"properties":{"Gebührenpflicht":"0","Distanz":"40.4","Adresse":"Zürichbergstrasse 175a","Orientierung":"LPU"}}
,{"type":"Feature","geometry":{"type":"Point","coordinates":[8.57093409396234,47.381989464928]},"properties":{"Gebührenpflicht":"0","Distanz":"45.2","Adresse":"Zürichbergstrasse 175a","Orientierung":"LPU"}}
,{"type":"Feature","geometry":{"type":"Point","coordinates":[8.57107393407505,47.3818670299777]},"properties":{"Gebührenpflicht":"0","Distanz":"31.8","Adresse":"Zürichbergstrasse 175a","Orientierung":"LPU"}}
,{"type":"Feature","geometry":{"type":"Point","coordinates":[8.57102732093777,47.3819078415848]},"properties":{"Gebührenpflicht":"0","Distanz":"35.9","Adresse":"Zürichbergstrasse 175a","Orientierung":"LPU"}}
,{"type":"Feature","geometry":{"type":"Point","coordinates":[8.56960096446757,47.3823671957017]},"properties":{"Gebührenpflicht":"0","Distanz":"117.8","Adresse":"Batteriestrasse 211","Orientierung":"LPU"}}
,{"type":"Feature","geometry":{"type":"Point","coordinates":[8.56967215935433,47.38237191794]},"properties":{"Gebührenpflicht":"0","Distanz":"118.6","Adresse":"Batteriestrasse 211","Orientierung":"LPU"}}
,{"type":"Feature","geometry":{"type":"Point","coordinates":[8.56938737954678,47.3823530285049]},"properties":{"Gebührenpflicht":"0","Distanz":"116.9","Adresse":"Batteriestrasse 211","Orientierung":"LPU"}}
,{"type":"Feature","geometry":{"type":"Point","coordinates":[8.56931618437963,47.3823483060958]},"properties":{"Gebührenpflicht":"0","Distanz":"117","Adresse":"Batteriestrasse 211","Orientierung":"LPU"}}
,{"type":"Feature","geometry":{"type":"Point","coordinates":[8.56924498954976,47.382343583416]},"properties":{"Gebührenpflicht":"0","Distanz":"117.5","Adresse":"Batteriestrasse 211","Orientierung":"LPU"}}
,{"type":"Feature","geometry":{"type":"Point","coordinates":[8.56945857439656,47.3823577508738]},"properties":{"Gebührenpflicht":"0","Distanz":"116.9","Adresse":"Batteriestrasse 211","Orientierung":"LPU"}}
,{"type":"Feature","geometry":{"type":"Point","coordinates":[8.56952976925867,47.3823624731991]},"properties":{"Gebührenpflicht":"0","Distanz":"117.2","Adresse":"Batteriestrasse 211","Orientierung":"LPU"}}
,{"type":"Feature","geometry":{"type":"Point","coordinates":[8.56889388071742,47.3822809367554]},"properties":{"Gebührenpflicht":"0","Distanz":"127","Adresse":"Orellistrasse 21a","Orientierung":"LPU"}}
,{"type":"Feature","geometry":{"type":"Point","coordinates":[8.56873993969062,47.3822695677127]},"properties":{"Gebührenpflicht":"0","Distanz":"115.9","Adresse":"Orellistrasse 21a","Orientierung":"LPU"}}
,{"type":"Feature","geometry":{"type":"Point","coordinates":[8.56881691035848,47.3822752521459]},"properties":{"Gebührenpflicht":"0","Distanz":"121.5","Adresse":"Orellistrasse 21a","Orientierung":"LPU"}}
,{"type":"Feature","geometry":{"type":"Point","coordinates":[8.53572344270137,47.3595036237346]},"properties":{"Gebührenpflicht":"0","Distanz":"42.1","Adresse":"Mythenquai 60","Orientierung":"LPU"}}
,{"type":"Feature","geometry":{"type":"Point","coordinates":[8.5358036069632,47.3595511491413]},"properties":{"Gebührenpflicht":"0","Distanz":"50.1","Adresse":"Mythenquai 60","Orientierung":"QPU"}}
,{"type":"Feature","geometry":{"type":"Point","coordinates":[8.53414555425436,47.363786478418]},"properties":{"Gebührenpflicht":"0","Distanz":"8.6","Adresse":"Jenatschstrasse 3","Orientierung":"LPU"}}
,{"type":"Feature","geometry":{"type":"Point","coordinates":[8.53401861125723,47.3684253725911]},"properties":{"Gebührenpflicht":"0","Distanz":"11","Adresse":"Gartenstrasse 11","Orientierung":"LPU"}}
,{"type":"Feature","geometry":{"type":"Point","coordinates":[8.5417082225742,47.3692360776755]},"properties":{"Gebührenpflicht":"0","Distanz":"10.1","Adresse":"Stadthausquai 17","Orientierung":"QPU"}}
,{"type":"Feature","geometry":{"type":"Point","coordinates":[8.54170528903775,47.3692093152733]},"properties":{"Gebührenpflicht":"0","Distanz":"12.6","Adresse":"Stadthausquai 17","Orientierung":"QPU"}}
,{"type":"Feature","geometry":{"type":"Point","coordinates":[8.54170235549956,47.3691825526469]},"properties":{"Gebührenpflicht":"0","Distanz":"15.3","Adresse":"Stadthausquai 17","Orientierung":"QPU"}}
,{"type":"Feature","geometry":{"type":"Point","coordinates":[8.51494685027966,47.3743486859284]},"properties":{"Gebührenpflicht":"0","Distanz":"9.3","Adresse":"Idaplatz 9","Orientierung":"LPU"}}
,{"type":"Feature","geometry":{"type":"Point","coordinates":[8.51717882104664,47.37284307893]},"properties":{"Gebührenpflicht":"0","Distanz":"19.7","Adresse":"Kalkbreitestrasse 78","Orientierung":"LPU"}}
,{"type":"Feature","geometry":{"type":"Point","coordinates":[8.51713588381821,47.3728637097804]},"properties":{"Gebührenpflicht":"0","Distanz":"19.5","Adresse":"Kalkbreitestrasse 78","Orientierung":"LPU"}}
,{"type":"Feature","geometry":{"type":"Point","coordinates":[8.5197594044544,47.3709522430219]},"properties":{"Gebührenpflicht":"0","Distanz":"6.6","Adresse":"Zweierstrasse 136","Orientierung":"LPU"}}
,{"type":"Feature","geometry":{"type":"Point","coordinates":[8.52928094750355,47.3730392141513]},"properties":{"Gebührenpflicht":"0","Distanz":"10.5","Adresse":"Stauffacherstrasse 26","Orientierung":"LPU"}}
,{"type":"Feature","geometry":{"type":"Point","coordinates":[8.51500540160527,47.3742372861014]},"properties":{"Gebührenpflicht":"0","Distanz":"15.5","Adresse":"Idaplatz 9","Orientierung":"LPU"}}
,{"type":"Feature","geometry":{"type":"Point","coordinates":[8.53716007597365,47.3779601019902]},"properties":{"Gebührenpflicht":"0","Distanz":"57.6","Adresse":"Gessnerallee 56","Orientierung":"LPU"}}
,{"type":"Feature","geometry":{"type":"Point","coordinates":[8.57389738350984,47.3553367443112]},"properties":{"Gebührenpflicht":"0","Distanz":"14","Adresse":"Russenweg 39","Orientierung":"LPU"}}
,{"type":"Feature","geometry":{"type":"Point","coordinates":[8.56143667844739,47.3659256161578]},"properties":{"Gebührenpflicht":"0","Distanz":"7.1","Adresse":"Streulistrasse 19","Orientierung":"LPU"}}
,{"type":"Feature","geometry":{"type":"Point","coordinates":[8.57474347450871,47.3843582510061]},"properties":{"Gebührenpflicht":"0","Distanz":"14.9","Adresse":"Klosterweg 5b","Orientierung":"QPU"}}
,{"type":"Feature","geometry":{"type":"Point","coordinates":[8.5747596256991,47.3843774072749]},"properties":{"Gebührenpflicht":"0","Distanz":"14","Adresse":"Zürichbergstrasse 221","Orientierung":"QPU"}}
,{"type":"Feature","geometry":{"type":"Point","coordinates":[8.5280197686734,47.3833636474697]},"properties":{"Gebührenpflicht":"0","Distanz":"7.5","Adresse":"Neugasse 80","Orientierung":"LPU"}}
,{"type":"Feature","geometry":{"type":"Point","coordinates":[8.52795209376858,47.3833924355859]},"properties":{"Gebührenpflicht":"0","Distanz":"9.9","Adresse":"Neugasse 80","Orientierung":"LPU"}}
,{"type":"Feature","geometry":{"type":"Point","coordinates":[8.52711097793727,47.3430776001177]},"properties":{"Gebührenpflicht":"0","Distanz":"12.3","Adresse":"Wachtelstrasse 17","Orientierung":"LPU"}}
,{"type":"Feature","geometry":{"type":"Point","coordinates":[8.52508970207744,47.3699898189558]},"properties":{"Gebührenpflicht":"0","Distanz":"10.7","Adresse":"Schimmelstrasse 7","Orientierung":"LPU"}}
,{"type":"Feature","geometry":{"type":"Point","coordinates":[8.54006944079491,47.3868511072455]},"properties":{"Gebührenpflicht":"0","Distanz":"7.9","Adresse":"Beckenhofstrasse 59","Orientierung":"QPU"}}
,{"type":"Feature","geometry":{"type":"Point","coordinates":[8.50741328266596,47.4186918300631]},"properties":{"Gebührenpflicht":"0","Distanz":"19","Adresse":"Wehntalerstrasse 535","Orientierung":"SCHPU"}}
,{"type":"Feature","geometry":{"type":"Point","coordinates":[8.54197383537806,47.3964543971718]},"properties":{"Gebührenpflicht":"0","Distanz":"17.4","Adresse":"Irchelstrasse 12","Orientierung":"LPU"}}
,{"type":"Feature","geometry":{"type":"Point","coordinates":[8.54207738708478,47.3943990693584]},"properties":{"Gebührenpflicht":"0","Distanz":"15.2","Adresse":"Scheuchzerstrasse 183","Orientierung":"LPU"}}
,{"type":"Feature","geometry":{"type":"Point","coordinates":[8.55371270690484,47.4091798066371]},"properties":{"Gebührenpflicht":"0","Distanz":"9.4","Adresse":"Kirchenackerweg 30","Orientierung":"QPU"}}
,{"type":"Feature","geometry":{"type":"Point","coordinates":[8.54955317022084,47.37069215053]},"properties":{"Gebührenpflicht":"0","Distanz":"9.3","Adresse":"Rämistrasse 38","Orientierung":"SCHPU"}}
,{"type":"Feature","geometry":{"type":"Point","coordinates":[8.54846305620241,47.4249173513484]},"properties":{"Gebührenpflicht":"0","Distanz":"14.5","Adresse":"Glatttalstrasse 38","Orientierung":"QPU"}}
,{"type":"Feature","geometry":{"type":"Point","coordinates":[8.48396601769732,47.385312100049]},"properties":{"Gebührenpflicht":"0","Distanz":"7.9","Adresse":"Eugen-Huber-Strasse 17","Orientierung":"LPU"}}
,{"type":"Feature","geometry":{"type":"Point","coordinates":[8.51462162375779,47.3757096105327]},"properties":{"Gebührenpflicht":"0","Distanz":"13.1","Adresse":"Zentralstrasse 153","Orientierung":"LPU"}}
,{"type":"Feature","geometry":{"type":"Point","coordinates":[8.51466776683814,47.3756740761749]},"properties":{"Gebührenpflicht":"0","Distanz":"9.4","Adresse":"Zentralstrasse 153","Orientierung":"LPU"}}
,{"type":"Feature","geometry":{"type":"Point","coordinates":[8.55611349450536,47.4168835241351]},"properties":{"Gebührenpflicht":"0","Distanz":"39.3","Adresse":"Leutschenbachstrasse 52","Orientierung":"LPU"}}
,{"type":"Feature","geometry":{"type":"Point","coordinates":[8.55554801962671,47.4166875094909]},"properties":{"Gebührenpflicht":"0","Distanz":"14.7","Adresse":"Leutschenbachstrasse 50","Orientierung":"LPU"}}
,{"type":"Feature","geometry":{"type":"Point","coordinates":[8.54899710231942,47.422509094352]},"properties":{"Gebührenpflicht":"0","Distanz":"56.4","Adresse":"Katzenbachstrasse 16","Orientierung":"QPU"}}
,{"type":"Feature","geometry":{"type":"Point","coordinates":[8.55439207600665,47.3533795137682]},"properties":{"Gebührenpflicht":"0","Distanz":"22.7","Adresse":"Bellerivestrasse 182","Orientierung":"SCHPU"}}
,{"type":"Feature","geometry":{"type":"Point","coordinates":[8.55314725910802,47.3541400397304]},"properties":{"Gebührenpflicht":"0","Distanz":"39.4","Adresse":"Hornbachstrasse 2","Orientierung":"SCHPU"}}
,{"type":"Feature","geometry":{"type":"Point","coordinates":[8.51946996796678,47.3884081196428]},"properties":{"Gebührenpflicht":"0","Distanz":"24.9","Adresse":"Hardstrasse 245","Orientierung":"LPU"}}
,{"type":"Feature","geometry":{"type":"Point","coordinates":[8.51854575194893,47.3887129295699]},"properties":{"Gebührenpflicht":"0","Distanz":"9.7","Adresse":"Schiffbaustrasse 6","Orientierung":"LPU"}}
,{"type":"Feature","geometry":{"type":"Point","coordinates":[8.57441806329114,47.3838062307106]},"properties":{"Gebührenpflicht":"0","Distanz":"46.3","Adresse":"Zürichbergstrasse 196","Orientierung":"QPU"}}
,{"type":"Feature","geometry":{"type":"Point","coordinates":[8.57444245499443,47.3837849390399]},"properties":{"Gebührenpflicht":"0","Distanz":"46.8","Adresse":"Zürichbergstrasse 196","Orientierung":"QPU"}}
,{"type":"Feature","geometry":{"type":"Point","coordinates":[8.57436927982161,47.3838488138112]},"properties":{"Gebührenpflicht":"0","Distanz":"41.9","Adresse":"Zürichbergstrasse 219","Orientierung":"QPU"}}
,{"type":"Feature","geometry":{"type":"Point","coordinates":[8.57423467857384,47.383777544081]},"properties":{"Gebührenpflicht":"0","Distanz":"33.1","Adresse":"Zürichbergstrasse 196","Orientierung":"QPU"}}
,{"type":"Feature","geometry":{"type":"Point","coordinates":[8.57425858907807,47.3837567584677]},"properties":{"Gebührenpflicht":"0","Distanz":"33.2","Adresse":"Zürichbergstrasse 196","Orientierung":"QPU"}}
,{"type":"Feature","geometry":{"type":"Point","coordinates":[8.57430641003083,47.383715187225]},"properties":{"Gebührenpflicht":"0","Distanz":"34.2","Adresse":"Zürichbergstrasse 196","Orientierung":"QPU"}}
,{"type":"Feature","geometry":{"type":"Point","coordinates":[8.57439367156846,47.3838275223756]},"properties":{"Gebührenpflicht":"0","Distanz":"44.8","Adresse":"Zürichbergstrasse 219","Orientierung":"QPU"}}
,{"type":"Feature","geometry":{"type":"Point","coordinates":[8.57428249956373,47.3837359728491]},"properties":{"Gebührenpflicht":"0","Distanz":"33.6","Adresse":"Zürichbergstrasse 196","Orientierung":"QPU"}}
,{"type":"Feature","geometry":{"type":"Point","coordinates":[8.57730848548814,47.3844116577477]},"properties":{"Gebührenpflicht":"0","Distanz":"38.6","Adresse":"Zürichbergstrasse 245","Orientierung":"QPU"}}
,{"type":"Feature","geometry":{"type":"Point","coordinates":[8.57738980034772,47.3843384232009]},"properties":{"Gebührenpflicht":"0","Distanz":"38.5","Adresse":"Rolf-Balsiger-Strasse 16","Orientierung":"QPU"}}
,{"type":"Feature","geometry":{"type":"Point","coordinates":[8.57720111401687,47.384510845298]},"properties":{"Gebührenpflicht":"0","Distanz":"26.5","Adresse":"Zürichbergstrasse 245","Orientierung":"QPU"}}
,{"type":"Feature","geometry":{"type":"Point","coordinates":[8.57728138048392,47.3844360691748]},"properties":{"Gebührenpflicht":"0","Distanz":"35.4","Adresse":"Zürichbergstrasse 245","Orientierung":"QPU"}}
,{"type":"Feature","geometry":{"type":"Point","coordinates":[8.57722300490728,47.384489589344]},"properties":{"Gebührenpflicht":"0","Distanz":"28.9","Adresse":"Zürichbergstrasse 245","Orientierung":"QPU"}}
,{"type":"Feature","geometry":{"type":"Point","coordinates":[8.57736269541765,47.3843628346488]},"properties":{"Gebührenpflicht":"0","Distanz":"41.8","Adresse":"Rolf-Balsiger-Strasse 16","Orientierung":"QPU"}}
,{"type":"Feature","geometry":{"type":"Point","coordinates":[8.57733559046286,47.3843872460897]},"properties":{"Gebührenpflicht":"0","Distanz":"41.7","Adresse":"Zürichbergstrasse 245","Orientierung":"QPU"}}
,{"type":"Feature","geometry":{"type":"Point","coordinates":[8.53585215384754,47.3570202681439]},"properties":{"Gebührenpflicht":"0","Distanz":"21.1","Adresse":"Mythenquai 75","Orientierung":"QPU"}}
,{"type":"Feature","geometry":{"type":"Point","coordinates":[8.53585286192822,47.3570546677066]},"properties":{"Gebührenpflicht":"0","Distanz":"19.6","Adresse":"Mythenquai 75","Orientierung":"QPU"}}
,{"type":"Feature","geometry":{"type":"Point","coordinates":[8.53585357001442,47.3570890674929]},"properties":{"Gebührenpflicht":"0","Distanz":"18.7","Adresse":"Mythenquai 75","Orientierung":"QPU"}}
,{"type":"Feature","geometry":{"type":"Point","coordinates":[8.53585144576779,47.3569858685809]},"properties":{"Gebührenpflicht":"0","Distanz":"23.2","Adresse":"Mythenquai 75","Orientierung":"QPU"}}
,{"type":"Feature","geometry":{"type":"Point","coordinates":[8.57253246584843,47.4048045765496]},"properties":{"Gebührenpflicht":"0","Distanz":"11.5","Adresse":"Herzogenmühlestrasse 3","Orientierung":"SCHPU"}}
,{"type":"Feature","geometry":{"type":"Point","coordinates":[8.55565966694074,47.3696950164253]},"properties":{"Gebührenpflicht":"0","Distanz":"6.6","Adresse":"Freiestrasse 55","Orientierung":"LPU"}}
,{"type":"Feature","geometry":{"type":"Point","coordinates":[8.54419020401654,47.3682940224981]},"properties":{"Gebührenpflicht":"0","Distanz":"20.2","Adresse":"Limmatquai 7","Orientierung":"LPU"}}
,{"type":"Feature","geometry":{"type":"Point","coordinates":[8.54423229536413,47.3682543502411]},"properties":{"Gebührenpflicht":"0","Distanz":"14.7","Adresse":"Limmatquai 7","Orientierung":"LPU"}}
,{"type":"Feature","geometry":{"type":"Point","coordinates":[8.53439074506061,47.3728361057615]},"properties":{"Gebührenpflicht":"0","Distanz":"23","Adresse":"Löwenstrasse 1","Orientierung":"LPU"}}
,{"type":"Feature","geometry":{"type":"Point","coordinates":[8.53253388910262,47.3843897207277]},"properties":{"Gebührenpflicht":"0","Distanz":"6.7","Adresse":"Ausstellungsstrasse 105","Orientierung":"LPU"}}
,{"type":"Feature","geometry":{"type":"Point","coordinates":[8.51702076555212,47.3769161561268]},"properties":{"Gebührenpflicht":"0","Distanz":"7.2","Adresse":"Karl-Bürkli-Strasse 11","Orientierung":"LPU"}}
,{"type":"Feature","geometry":{"type":"Point","coordinates":[8.51686649597652,47.3768970390384]},"properties":{"Gebührenpflicht":"0","Distanz":"14.8","Adresse":"Karl-Bürkli-Strasse 11","Orientierung":"LPU"}}
,{"type":"Feature","geometry":{"type":"Point","coordinates":[8.53724897785873,47.3935622119227]},"properties":{"Gebührenpflicht":"0","Distanz":"16.5","Adresse":"Rothstrasse 34","Orientierung":"LPU"}}
,{"type":"Feature","geometry":{"type":"Point","coordinates":[8.51695528681879,47.3903667072573]},"properties":{"Gebührenpflicht":"0","Distanz":"24.4","Adresse":"Technoparkstrasse 7","Orientierung":"LPU"}}
,{"type":"Feature","geometry":{"type":"Point","coordinates":[8.56048713764296,47.3831757046998]},"properties":{"Gebührenpflicht":"0","Distanz":"17.9","Adresse":"Krönleinstrasse 44","Orientierung":"LPU"}}
,{"type":"Feature","geometry":{"type":"Point","coordinates":[8.56987824119036,47.3636471609199]},"properties":{"Gebührenpflicht":"0","Distanz":"7.4","Adresse":"Kluseggstrasse 17","Orientierung":"LPU"}}
,{"type":"Feature","geometry":{"type":"Point","coordinates":[8.54776749035899,47.3614051003145]},"properties":{"Gebührenpflicht":"0","Distanz":"14.6","Adresse":"Seefeldquai 4","Orientierung":"LPU"}}
,{"type":"Feature","geometry":{"type":"Point","coordinates":[8.50128860911257,47.3798291507712]},"properties":{"Gebührenpflicht":"0","Distanz":"30.9","Adresse":"Letzigraben 43","Orientierung":"SCHPU"}}
,{"type":"Feature","geometry":{"type":"Point","coordinates":[8.51890657408618,47.400224039667]},"properties":{"Gebührenpflicht":"0","Distanz":"29","Adresse":"Emil-Klöti-Strasse 16","Orientierung":"LPU"}}
,{"type":"Feature","geometry":{"type":"Point","coordinates":[8.53493470138295,47.3892898200764]},"properties":{"Gebührenpflicht":"0","Distanz":"13.3","Adresse":"Nordstrasse 103","Orientierung":"LPU"}}
,{"type":"Feature","geometry":{"type":"Point","coordinates":[8.53018000011662,47.3936994684902]},"properties":{"Gebührenpflicht":"0","Distanz":"7.6","Adresse":"Rötelsteig 6","Orientierung":"LPU"}}
,{"type":"Feature","geometry":{"type":"Point","coordinates":[8.55932842775608,47.3535985365559]},"properties":{"Gebührenpflicht":"0","Distanz":"8.3","Adresse":"Wildbachstrasse 80","Orientierung":"LPU"}}
,{"type":"Feature","geometry":{"type":"Point","coordinates":[8.55933970087766,47.353651888388]},"properties":{"Gebührenpflicht":"0","Distanz":"4.5","Adresse":"Wildbachstrasse 80","Orientierung":"LPU"}}
,{"type":"Feature","geometry":{"type":"Point","coordinates":[8.51784578809271,47.3730581546279]},"properties":{"Gebührenpflicht":"0","Distanz":"15.1","Adresse":"Zentralstrasse 74","Orientierung":"LPU"}}
,{"type":"Feature","geometry":{"type":"Point","coordinates":[8.5178051354118,47.3730898486865]},"properties":{"Gebührenpflicht":"0","Distanz":"15.4","Adresse":"Zentralstrasse 74","Orientierung":"LPU"}}
,{"type":"Feature","geometry":{"type":"Point","coordinates":[8.52228518190694,47.3570309076731]},"properties":{"Gebührenpflicht":"0","Distanz":"41.8","Adresse":"Allmendstrasse 2","Orientierung":"SCHPU"}}
,{"type":"Feature","geometry":{"type":"Point","coordinates":[8.52230948308925,47.3569958037697]},"properties":{"Gebührenpflicht":"0","Distanz":"44.6","Adresse":"Allmendstrasse 2","Orientierung":"SCHPU"}}
,{"type":"Feature","geometry":{"type":"Point","coordinates":[8.52921155446344,47.3418384868008]},"properties":{"Gebührenpflicht":"0","Distanz":"14.5","Adresse":"Rainstrasse 6","Orientierung":"LPU"}}
,{"type":"Feature","geometry":{"type":"Point","coordinates":[8.52764220020594,47.3497711630584]},"properties":{"Gebührenpflicht":"0","Distanz":"12.8","Adresse":"Thujastrasse 6","Orientierung":"LPU"}}
]}
