{"name":"Friedhof","type":"FeatureCollection"
,"features":[
{"type":"Feature","geometry":{"type":"Point","coordinates":[8.51193600462439,47.3324404001721]},"properties":{"Ort":"Zürich","www":"","Adresse":"Stotzstrasse 100","PLZ":"8041","Tel":"044 482 86 23","Name":"Friedhof Leimbach"}}
,{"type":"Feature","geometry":{"type":"Point","coordinates":[8.5237031054891,47.3476132848055]},"properties":{"Ort":"Zürich","www":"","Adresse":"Thujastrasse 60","PLZ":"8038","Tel":"044 482 10 03","Name":"Friedhof Manegg"}}
,{"type":"Feature","geometry":{"type":"Point","coordinates":[8.50713328258463,47.3773528741989]},"properties":{"Ort":"Zürich","www":"","Adresse":"Albisriederstrasse 31","PLZ":"8003","Tel":"044 492 27 70","Name":"Aufbahrungshalle Friedhof Sihlfeld D"}}
,{"type":"Feature","geometry":{"type":"Point","coordinates":[8.50876932213685,47.4245167303899]},"properties":{"Ort":"Zürich","www":"","Adresse":"Zehntenhausstrasse 94","PLZ":"8046","Tel":"044 371 05 04","Name":"Friedhof Affoltern"}}
,{"type":"Feature","geometry":{"type":"Point","coordinates":[8.62018807459238,47.3606246866438]},"properties":{"Ort":"Zürich","www":"","Adresse":"Weidstrasse/Pfaffhausen","PLZ":"","Tel":"044 202 56 69","Name":"Israelitischer Friedhof Binz"}}
,{"type":"Feature","geometry":{"type":"Point","coordinates":[8.49718098605034,47.401641189359]},"properties":{"Ort":"Zürich","www":"","Adresse":"Am Wettingertobel 38","PLZ":"8049","Tel":"044 344 14 05","Name":"Kirchhof Höngg"}}
,{"type":"Feature","geometry":{"type":"Point","coordinates":[8.5312334995479,47.4037708508696]},"properties":{"Ort":"Zürich","www":"","Adresse":"Nordheimstrasse 28","PLZ":"8057","Tel":"044 361 24 00","Name":"Friedhof Nordheim"}}
,{"type":"Feature","geometry":{"type":"Point","coordinates":[8.55319914877969,47.4061659667438]},"properties":{"Ort":"Zürich","www":"","Adresse":"Schwamendingenstrasse 69","PLZ":"8050","Tel":"044 322 32 70","Name":"Friedhof Oerlikon"}}
,{"type":"Feature","geometry":{"type":"Point","coordinates":[8.47612404412864,47.3829759949109]},"properties":{"Ort":"Zürich","www":"","Adresse":"Friedhofstrasse 73","PLZ":"8048","Tel":"044 431 57 60","Name":"Friedhof Altstetten"}}
,{"type":"Feature","geometry":{"type":"Point","coordinates":[8.58021753330454,47.3507110295204]},"properties":{"Ort":"Zürich","www":"","Adresse":"Forchstrasse 384","PLZ":"8008","Tel":"044 381 01 00","Name":"Friedhof Enzenbühl"}}
,{"type":"Feature","geometry":{"type":"Point","coordinates":[8.57241371964541,47.3833237026868]},"properties":{"Ort":"Zürich","www":"","Adresse":"Zürichbergstrasse 189","PLZ":"8044","Tel":"044 251 87 00","Name":"Friedhof Fluntern"}}
,{"type":"Feature","geometry":{"type":"Point","coordinates":[8.51048124600483,47.3759186028923]},"properties":{"Ort":"Zürich","www":"","Adresse":"Aemtlerstrasse 151","PLZ":"8003","Tel":"044 412 06 40","Name":"Friedhof Sihlfeld A-E"}}
,{"type":"Feature","geometry":{"type":"Point","coordinates":[8.4734018629579,47.3833359598831]},"properties":{"Ort":"Zürich","www":"","Adresse":"Friedhofstrasse 94","PLZ":"8048","Tel":"044 431 57 60","Name":"Friedhof Eichbühl"}}
,{"type":"Feature","geometry":{"type":"Point","coordinates":[8.48165308515384,47.3792949114109]},"properties":{"Ort":"Zürich","www":"","Adresse":"Untermoosstrasse","PLZ":"8047","Tel":"044 431 57 60","Name":"Friedhof Albisrieden"}}
,{"type":"Feature","geometry":{"type":"Point","coordinates":[8.50729526119747,47.3641537492966]},"properties":{"Ort":"Zürich","www":"","Adresse":"Friesenbergstrasse 330","PLZ":"8055","Tel":"044 482 88 07","Name":"Israelitischer Friedhof Unterer Friesberg"}}
,{"type":"Feature","geometry":{"type":"Point","coordinates":[8.48482022518821,47.3704783760063]},"properties":{"Ort":"Zürich","www":"","Adresse":"Am Schützenrain","PLZ":"8047","Tel":"044 221 11 52","Name":"Israelitischer Friedhof am Schützenrain"}}
,{"type":"Feature","geometry":{"type":"Point","coordinates":[8.55019892847129,47.3671820734019]},"properties":{"Ort":"Zürich","www":"","Adresse":"Schanzengasse","PLZ":"8001","Tel":"044 321 65 13","Name":"Privater Friedhof Hohe Promenade"}}
,{"type":"Feature","geometry":{"type":"Point","coordinates":[8.49967587277214,47.3579742754844]},"properties":{"Ort":"Zürich","www":"","Adresse":"Borrweg 253","PLZ":"8055","Tel":"044 461 21 17","Name":"Friedhof Uetliberg"}}
,{"type":"Feature","geometry":{"type":"Point","coordinates":[8.60232588826852,47.3618153228549]},"properties":{"Ort":"Zürich","www":"","Adresse":"Witikonerstrasse 525","PLZ":"8053","Tel":"044 381 28 00","Name":"Friedhof Witikon"}}
,{"type":"Feature","geometry":{"type":"Point","coordinates":[8.49944911048212,47.3598565203907]},"properties":{"Ort":"Zürich","www":"","Adresse":"Friesenbergstrasse 330","PLZ":"8055","Tel":"044 482 88 07","Name":"Israelitischer Friedhof Oberer Friesberg"}}
,{"type":"Feature","geometry":{"type":"Point","coordinates":[8.58020410747436,47.3507021670215]},"properties":{"Ort":"Zürich","www":"","Adresse":"Forchstrasse 384","PLZ":"8008","Tel":"044 381 01 00","Name":"Friedhof Rehalp und Enzenbühl"}}
,{"type":"Feature","geometry":{"type":"Point","coordinates":[8.49143733927046,47.4099960785862]},"properties":{"Ort":"Zürich","www":"","Adresse":"Notzenschürlistrasse 30","PLZ":"8049","Tel":"044 344 14 05","Name":"Friedhof Hönggerberg"}}
,{"type":"Feature","geometry":{"type":"Point","coordinates":[8.58021753330454,47.3507110295204]},"properties":{"Ort":"Zürich","www":"","Adresse":"Forchstrasse 384","PLZ":"8008","Tel":"044 381 01 00","Name":"Friedhof Rehalp"}}
,{"type":"Feature","geometry":{"type":"Point","coordinates":[8.57573154885093,47.402873694879]},"properties":{"Ort":"Zürich","www":"","Adresse":"Stettbachstrasse 70","PLZ":"8051","Tel":"044 322 32 70","Name":"Friedhof Schwamendingen"}}
,{"type":"Feature","geometry":{"type":"Point","coordinates":[8.53732899698648,47.4217930554774]},"properties":{"Ort":"Zürich","www":"","Adresse":"Seebacherstrasse 130","PLZ":"8052","Tel":"044 302 17 66","Name":"Friedhof Schwandenholz"}}
,{"type":"Feature","geometry":{"type":"Point","coordinates":[8.59455641332896,47.357620631339]},"properties":{"Ort":"Zürich","www":"","Adresse":"","PLZ":"8053","Tel":"044 381 28 00","Name":"Kirchhof Witikon"}}
,{"type":"Feature","geometry":{"type":"Point","coordinates":[8.48582000880658,47.3703693815562]},"properties":{"Ort":"Zürich","www":"","Adresse":"Goldackerweg","PLZ":"8047","Tel":"044 461 02 69","Name":"Israelitischer Friedhof Agudas Achim"}}
]}
