{"name":"Kindergarten","type":"FeatureCollection"
,"features":[
{"type":"Feature","geometry":{"type":"Point","coordinates":[8.5126647008643,47.3735952535558]},"properties":{"Ort":"Zürich","www":"http://www.stadt-zuerich.ch/content/ssd/de/index/volksschule/schulkreise_kreisschulpflegen/limmattal/schulen/aemtler_a_schuleinheit/kindergarten.html","Adresse":"Bertastrasse 50","PLZ":"8003","Tel":"044 461 03 58","Name":"Aemtler A1 und A2"}}
,{"type":"Feature","geometry":{"type":"Point","coordinates":[8.5227185115229,47.369122445501]},"properties":{"Ort":"Zürich","www":"http://www.stadt-zuerich.ch/content/ssd/de/index/volksschule/schulkreise_kreisschulpflegen/uto/schulen/aegerten_schuleinheit/kindergarten.html","Adresse":"Aegertenstrasse 29","PLZ":"8003","Tel":"043 268 66 13","Name":"Aegerten I"}}
,{"type":"Feature","geometry":{"type":"Point","coordinates":[8.51213560089622,47.3826522189623]},"properties":{"Ort":"Zürich","www":"http://www.stadt-zuerich.ch/content/ssd/de/index/volksschule/schulkreise_kreisschulpflegen/limmattal/schulen/hardau_schuleinheit/kindergarten.html","Adresse":"Gugolzstrasse 14","PLZ":"8004","Tel":"044 491 53 96","Name":"Gugolz"}}
,{"type":"Feature","geometry":{"type":"Point","coordinates":[8.53929177063759,47.4020612481795]},"properties":{"Ort":"Zürich","www":"http://www.stadt-zuerich.ch/content/ssd/de/index/volksschule/schulkreise_kreisschulpflegen/waidberg/schulen/allenmoos_schuleinheit/kindergarten.html","Adresse":"Schürbungert 25","PLZ":"8057","Tel":"043 255 20 14","Name":"Allenmoos Schulhaus 1"}}
,{"type":"Feature","geometry":{"type":"Point","coordinates":[8.47425382728739,47.3910974077109]},"properties":{"Ort":"Zürich","www":"http://www.stadt-zuerich.ch/content/ssd/de/index/volksschule/schulkreise_kreisschulpflegen/letzi/schulen/schule_loogarten/kindergaerten.html","Adresse":"Dachslernstrasse 80","PLZ":"8048","Tel":"044 431 94 65","Name":"Dachslernstrasse"}}
,{"type":"Feature","geometry":{"type":"Point","coordinates":[8.50467900517271,47.3630314213852]},"properties":{"Ort":"Zürich","www":"http://www.stadt-zuerich.ch/content/ssd/de/index/volksschule/schulkreise_kreisschulpflegen/uto/schulen/friesenberg_schuleinheit/kindergarten.html","Adresse":"Schweighofstrasse 296","PLZ":"8055","Tel":"044 463 70 88","Name":"Schweighof 296"}}
,{"type":"Feature","geometry":{"type":"Point","coordinates":[8.48642337150266,47.3859993239769]},"properties":{"Ort":"Zürich","www":"http://www.stadt-zuerich.ch/content/ssd/de/index/volksschule/schulkreise_kreisschulpflegen/letzi/schulen/schule_altstetterstrasse/kindergaerten.html","Adresse":"Altstetterstrasse 171","PLZ":"8048","Tel":"044 439 30 70","Name":"Altstetter 2"}}
,{"type":"Feature","geometry":{"type":"Point","coordinates":[8.50010366660785,47.367041567678]},"properties":{"Ort":"Zürich","www":"http://www.stadt-zuerich.ch/content/ssd/de/index/volksschule/schulkreise_kreisschulpflegen/uto/schulen/kuengenmatt_schuleinheit/kindergarten.html","Adresse":"Schweighofstrasse 405a","PLZ":"8055","Tel":"044 463 56 26","Name":"Unterer Schweighof"}}
,{"type":"Feature","geometry":{"type":"Point","coordinates":[8.54925941337264,47.4167629602014]},"properties":{"Ort":"Zürich","www":"http://www.stadt-zuerich.ch/content/ssd/de/index/volksschule/schulkreise_kreisschulpflegen/glattal/schulen/buhn_schuleinheit/kindergaerten.html","Adresse":"Kosakenweg 4","PLZ":"8052","Tel":"044 302 69 53","Name":"Kosaken I"}}
,{"type":"Feature","geometry":{"type":"Point","coordinates":[8.51551491287808,47.3261844944188]},"properties":{"Ort":"Zürich","www":"http://www.stadt-zuerich.ch/ssd/de/index/volksschule/schulkreise_kreisschulpflegen/uto/schulen/sihlweid_schuleinheit/kindergarten.html","Adresse":"Sihlweidstrasse 2","PLZ":"8041","Tel":"044 481 83 03","Name":"Sihlweid I"}}
,{"type":"Feature","geometry":{"type":"Point","coordinates":[8.53469527861318,47.4254440902843]},"properties":{"Ort":"Zürich","www":"http://www.stadt-zuerich.ch/content/ssd/de/index/volksschule/schulkreise_kreisschulpflegen/glattal/schulen/heumatt_schuleinheit/kindergarten.html","Adresse":"Schwandenacker 51","PLZ":"8052","Tel":"044 301 01 04","Name":"Schwandenwiese I"}}
,{"type":"Feature","geometry":{"type":"Point","coordinates":[8.4956763440068,47.4238116302767]},"properties":{"Ort":"Zürich","www":"http://www.stadt-zuerich.ch/content/ssd/de/index/volksschule/schulkreise_kreisschulpflegen/glattal/schulen/holderbach_schuleinheit/kindergarten.html","Adresse":"Im Holzerhurd 41","PLZ":"8046","Tel":"044 371 99 90","Name":"Holzerhurd"}}
,{"type":"Feature","geometry":{"type":"Point","coordinates":[8.48398726458313,47.4056876027476]},"properties":{"Ort":"Zürich","www":"http://www.stadt-zuerich.ch/content/ssd/de/index/volksschule/schulkreise_kreisschulpflegen/waidberg/schulen/puenten_riedhof_schuleinheit/kindergarten.html","Adresse":"Schwarzenbachweg 23","PLZ":"8049","Tel":"044 341 03 42","Name":"Schwarzenbachweg"}}
,{"type":"Feature","geometry":{"type":"Point","coordinates":[8.54417770693761,47.3909985372887]},"properties":{"Ort":"Zürich","www":"http://www.stadt-zuerich.ch/content/ssd/de/index/volksschule/schulkreise_kreisschulpflegen/waidberg/schulen/roesli_weinberg_turner_schuleinheit/kindergarten.html","Adresse":"Zanggerweg 40","PLZ":"8006","Tel":"044 363 20 91","Name":"Zanggerweg 1"}}
,{"type":"Feature","geometry":{"type":"Point","coordinates":[8.48099413723721,47.4144382215826]},"properties":{"Ort":"Zürich","www":"http://www.stadt-zuerich.ch/content/ssd/de/index/volksschule/schulkreise_kreisschulpflegen/waidberg/schulen/ruetihof_schuleinheit/kindergarten.html","Adresse":"Geeringstrasse 30a","PLZ":"8049","Tel":"044 342 00 55","Name":"Geeringstrasse 1"}}
,{"type":"Feature","geometry":{"type":"Point","coordinates":[8.58210664480378,47.4020780744858]},"properties":{"Ort":"Zürich","www":"http://www.stadt-zuerich.ch/content/ssd/de/index/volksschule/schulkreise_kreisschulpflegen/schwamendingen/schulen/luchswiesen_schuleinheit/kindergarten.html","Adresse":"Glattwiesenstrasse 12","PLZ":"8051","Tel":"044 322 27 82/93","Name":"Glattwiesenstrasse"}}
,{"type":"Feature","geometry":{"type":"Point","coordinates":[8.52276008714873,47.3945807588063]},"properties":{"Ort":"Zürich","www":"http://www.stadt-zuerich.ch/ssd/de/index/volksschule/schulkreise_kreisschulpflegen/waidberg/schulen/waidhalde_schuleinheit/kindergarten.html","Adresse":"Dorfstrasse 32","PLZ":"8037","Tel":"044 272 30 21","Name":"Dorfstrasse"}}
,{"type":"Feature","geometry":{"type":"Point","coordinates":[8.51766684974166,47.3978035468122]},"properties":{"Ort":"Zürich","www":"http://www.stadt-zuerich.ch/ssd/de/index/volksschule/schulkreise_kreisschulpflegen/waidberg/schulen/waidhalde_schuleinheit/kindergarten.html","Adresse":"Waidfussweg 61","PLZ":"8037","Tel":"043 271 42 18","Name":"Waidfussweg 1"}}
,{"type":"Feature","geometry":{"type":"Point","coordinates":[8.51750183067379,47.4140413689903]},"properties":{"Ort":"Zürich","www":"http://www.stadt-zuerich.ch/content/ssd/de/index/volksschule/schulkreise_kreisschulpflegen/glattal/schulen/schauenberg_schuleinheit/kindergarten.html","Adresse":"Obsthaldenstrasse 88","PLZ":"8046","Tel":"044 371 01 37","Name":"Obsthalden"}}
,{"type":"Feature","geometry":{"type":"Point","coordinates":[8.56487460217779,47.3628019443921]},"properties":{"Ort":"Zürich","www":"http://www.stadt-zuerich.ch/content/ssd/de/index/volksschule/schulkreise_kreisschulpflegen/zuerichberg/schulen/hirslanden_schuleinheit/kindergarten.html","Adresse":"Streulistrasse 78","PLZ":"8032","Tel":"043 488 55 57","Name":"Hofacker Turnhaus"}}
,{"type":"Feature","geometry":{"type":"Point","coordinates":[8.5007205222051,47.3860971265891]},"properties":{"Ort":"Zürich","www":"http://www.stadt-zuerich.ch/content/ssd/de/index/volksschule/schulkreise_kreisschulpflegen/letzi/schulen/schule_kappeli/kindergaerten.html","Adresse":"Hohlstrasse 437","PLZ":"8048","Tel":"044 491 53 32","Name":"Hohlstrasse"}}
,{"type":"Feature","geometry":{"type":"Point","coordinates":[8.48883546502852,47.4044627130756]},"properties":{"Ort":"Zürich","www":"http://www.stadt-zuerich.ch/content/ssd/de/index/volksschule/schulkreise_kreisschulpflegen/waidberg/schulen/puenten_riedhof_schuleinheit/kindergarten.html","Adresse":"Imbisbühlstrasse 79","PLZ":"8049","Tel":"044 341 57 80","Name":"Pünten"}}
,{"type":"Feature","geometry":{"type":"Point","coordinates":[8.55303164923829,47.4071112128757]},"properties":{"Ort":"Zürich","www":"http://www.stadt-zuerich.ch/content/ssd/de/index/volksschule/schulkreise_kreisschulpflegen/glattal/schulen/apfelbaum_schuleinheit/kindergarten.html","Adresse":"Salvatorstrasse 18","PLZ":"8050","Tel":"044 311 42 65","Name":"Salvator I"}}
,{"type":"Feature","geometry":{"type":"Point","coordinates":[8.53302959297037,47.4164646790897]},"properties":{"Ort":"Zürich","www":"http://www.stadt-zuerich.ch/content/ssd/de/index/volksschule/schulkreise_kreisschulpflegen/glattal/schulen/huerstholz_schuleinheit/kindergarten.html","Adresse":"Neunbrunnenstrasse 130","PLZ":"8050","Tel":"044 371 83 43","Name":"Neunbrunnen Beta"}}
,{"type":"Feature","geometry":{"type":"Point","coordinates":[8.5401822928217,47.415642619816]},"properties":{"Ort":"Zürich","www":"http://www.stadt-zuerich.ch/content/ssd/de/index/volksschule/schulkreise_kreisschulpflegen/glattal/schulen/im_birch_schuleinheit/kindergarten.html","Adresse":"Margrit-Rainer-Strasse 5","PLZ":"8050","Tel":"043 300 67 07","Name":"Im Birch III"}}
,{"type":"Feature","geometry":{"type":"Point","coordinates":[8.5401822928217,47.415642619816]},"properties":{"Ort":"Zürich","www":"http://www.stadt-zuerich.ch/content/ssd/de/index/volksschule/schulkreise_kreisschulpflegen/glattal/schulen/im_birch_schuleinheit/kindergarten.html","Adresse":"Margrit-Rainer-Strasse 5","PLZ":"8050","Tel":"043 300 67 07","Name":"Im Birch II"}}
,{"type":"Feature","geometry":{"type":"Point","coordinates":[8.51001650973668,47.3823167551312]},"properties":{"Ort":"Zürich","www":"http://www.stadt-zuerich.ch/content/ssd/de/index/volksschule/schulkreise_kreisschulpflegen/limmattal/schulen/hardau_schuleinheit/kindergarten.html","Adresse":"Bullingerstrasse 62","PLZ":"8004","Tel":"043 336 20 71","Name":"Hardau 1"}}
,{"type":"Feature","geometry":{"type":"Point","coordinates":[8.53403994612663,47.4003237098828]},"properties":{"Ort":"Zürich","www":"http://www.stadt-zuerich.ch/content/ssd/de/index/volksschule/schulkreise_kreisschulpflegen/waidberg/schulen/allenmoos_schuleinheit/kindergarten.html","Adresse":"Hofwiesenstrasse 158","PLZ":"8057","Tel":"044 364 91 20","Name":"Brunnenhof 1"}}
,{"type":"Feature","geometry":{"type":"Point","coordinates":[8.50163391196988,47.4249423009167]},"properties":{"Ort":"Zürich","www":"http://www.stadt-zuerich.ch/content/ssd/de/index/volksschule/schulkreise_kreisschulpflegen/glattal/schulen/ruggaecher_schuleinheit/kindergarten.html","Adresse":"Mühlackerstrasse 90","PLZ":"8046","Tel":"044 377 31 30","Name":"Ruggächer 1"}}
,{"type":"Feature","geometry":{"type":"Point","coordinates":[8.55303164923829,47.4071112128757]},"properties":{"Ort":"Zürich","www":"http://www.stadt-zuerich.ch/content/ssd/de/index/volksschule/schulkreise_kreisschulpflegen/glattal/schulen/apfelbaum_schuleinheit/kindergarten.html","Adresse":"Salvatorstrasse 18","PLZ":"8050","Tel":"044 311 46 67","Name":"Salvator II"}}
,{"type":"Feature","geometry":{"type":"Point","coordinates":[8.53469527861318,47.4254440902843]},"properties":{"Ort":"Zürich","www":"http://www.stadt-zuerich.ch/content/ssd/de/index/volksschule/schulkreise_kreisschulpflegen/glattal/schulen/heumatt_schuleinheit/kindergarten.html","Adresse":"Schwandenacker 51","PLZ":"8052","Tel":"044 301 01 04","Name":"Schwandenwiese II"}}
,{"type":"Feature","geometry":{"type":"Point","coordinates":[8.53114557411849,47.3600669273005]},"properties":{"Ort":"Zürich","www":"http://www.stadt-zuerich.ch/content/ssd/de/index/volksschule/schulkreise_kreisschulpflegen/uto/schulen/gabler_schuleinheit/kindergarten.html","Adresse":"Grütlistrasse 76","PLZ":"8002","Tel":"044 201 16 75","Name":"Grütli II"}}
,{"type":"Feature","geometry":{"type":"Point","coordinates":[8.53287683890232,47.3384558147333]},"properties":{"Ort":"Zürich","www":"http://www.stadt-zuerich.ch/content/ssd/de/index/volksschule/schulkreise_kreisschulpflegen/uto/schulen/wollishofen_im_lee_schuleinheit/kindergarten.html","Adresse":"Honeggerweg 8","PLZ":"8038","Tel":"044 482 06 31","Name":"Honeggerweg II"}}
,{"type":"Feature","geometry":{"type":"Point","coordinates":[8.52662399217525,47.3401101119736]},"properties":{"Ort":"Zürich","www":"http://www.stadt-zuerich.ch/content/ssd/de/index/volksschule/schulkreise_kreisschulpflegen/uto/schulen/entlisberg_schuleinheit/kindergarten.html","Adresse":"Farenweg 9","PLZ":"8038","Tel":"044 481 81 10","Name":"Farenweg II"}}
,{"type":"Feature","geometry":{"type":"Point","coordinates":[8.53866554484108,47.3960808776191]},"properties":{"Ort":"Zürich","www":"http://www.stadt-zuerich.ch/content/ssd/de/index/volksschule/schulkreise_kreisschulpflegen/waidberg/schulen/milchbuck_a_schuleinheit/schulhaus.html","Adresse":"Guggachstrasse 11","PLZ":"8057","Tel":"044 368 38 97","Name":"Milchbuck Pavillon 2"}}
,{"type":"Feature","geometry":{"type":"Point","coordinates":[8.547631127877,47.3861945546509]},"properties":{"Ort":"Zürich","www":"http://www.stadt-zuerich.ch/content/ssd/de/index/volksschule/schulkreise_kreisschulpflegen/waidberg/schulen/scherr_schuleinheit/kindergarten.html","Adresse":"Ottikerweg 9","PLZ":"8006","Tel":"044 362 42 25","Name":"Ottikerweg 2"}}
,{"type":"Feature","geometry":{"type":"Point","coordinates":[8.54901112867622,47.3822999643184]},"properties":{"Ort":"Zürich","www":"http://www.stadt-zuerich.ch/content/ssd/de/index/volksschule/schulkreise_kreisschulpflegen/waidberg/schulen/hutten_schuleinheit/kindergaerten.html","Adresse":"Huttenstrasse 14","PLZ":"8006","Tel":"043 255 15 59","Name":"Hutten Pavillon 2"}}
,{"type":"Feature","geometry":{"type":"Point","coordinates":[8.51657988813805,47.3740070103611]},"properties":{"Ort":"Zürich","www":"http://www.stadt-zuerich.ch/ssd/de/index/volksschule/schulkreise_kreisschulpflegen/limmattal/schulen/zurlinden_schuleinheit/kindergartenhaus.html","Adresse":"Zentralstrasse 105","PLZ":"8003","Tel":"043 960 70 40","Name":"Wiedikon 3"}}
,{"type":"Feature","geometry":{"type":"Point","coordinates":[8.56265128145815,47.4075411788985]},"properties":{"Ort":"Zürich","www":"http://www.stadt-zuerich.ch/content/ssd/de/index/volksschule/schulkreise_kreisschulpflegen/schwamendingen/schulen/saatlen_schuleinheit/grundstufen.html","Adresse":"Schörlistrasse 30","PLZ":"8050","Tel":"043 299 30 88","Name":"Schörlistrasse"}}
,{"type":"Feature","geometry":{"type":"Point","coordinates":[8.56036167015132,47.368991417322]},"properties":{"Ort":"Zürich","www":"http://www.stadt-zuerich.ch/content/ssd/de/index/volksschule/schulkreise_kreisschulpflegen/zuerichberg/schulen/illgen_schuleinheit/kindergarten.html","Adresse":"Ilgenstrasse 15","PLZ":"8032","Tel":"044 413 00 97","Name":"Ilgen 2"}}
,{"type":"Feature","geometry":{"type":"Point","coordinates":[8.53550396941597,47.418646077353]},"properties":{"Ort":"Zürich","www":"","Adresse":"Himmeristrasse 57","PLZ":"8052","Tel":"044 306 52 31","Name":"Tageskindergarten Staudenbühl"}}
,{"type":"Feature","geometry":{"type":"Point","coordinates":[8.46976541257225,47.388130682644]},"properties":{"Ort":"Zürich","www":"http://www.stadt-zuerich.ch/content/ssd/de/index/volksschule/schulkreise_kreisschulpflegen/letzi/schulen/schule_loogarten/kindergaerten.html","Adresse":"Rautistrasse 387","PLZ":"8048","Tel":"044 431 30 80","Name":"Im Talbächli 1"}}
,{"type":"Feature","geometry":{"type":"Point","coordinates":[8.47331606029417,47.3885871837418]},"properties":{"Ort":"Zürich","www":"http://www.stadt-zuerich.ch/content/ssd/de/index/volksschule/schulkreise_kreisschulpflegen/letzi/schulen/schule_chriesiweg/kindergaerten.html","Adresse":"Eugen-Huber-Strasse 150","PLZ":"8048","Tel":"044 434 81 20","Name":"Chriesiweg 2"}}
,{"type":"Feature","geometry":{"type":"Point","coordinates":[8.48176354555793,47.3897833393735]},"properties":{"Ort":"Zürich","www":"http://www.stadt-zuerich.ch/content/ssd/de/index/volksschule/schulkreise_kreisschulpflegen/letzi/schulen/schule_im_herrlig/kindergaerten.html","Adresse":"Badenerstrasse 724","PLZ":"8048","Tel":"043 311 76 04","Name":"Im Herrlig 2"}}
,{"type":"Feature","geometry":{"type":"Point","coordinates":[8.51466833512002,47.3793152791731]},"properties":{"Ort":"Zürich","www":"http://www.stadt-zuerich.ch/content/ssd/de/index/volksschule/schulkreise_kreisschulpflegen/limmattal/schulen/sihlfeld_schuleinheit/kindergarten.html","Adresse":"Bullingerstrasse 5","PLZ":"8004","Tel":"044 242 87 21","Name":"Bullingerhof 2"}}
,{"type":"Feature","geometry":{"type":"Point","coordinates":[8.51726865598243,47.3674883632498]},"properties":{"Ort":"Zürich","www":"http://www.stadt-zuerich.ch/content/ssd/de/index/volksschule/schulkreise_kreisschulpflegen/uto/schulen/buehl_schuleinheit/kindergarten.html","Adresse":"Meiliweg 6","PLZ":"8055","Tel":"044 462 92 40","Name":"Meiliweg I"}}
,{"type":"Feature","geometry":{"type":"Point","coordinates":[8.49211965029785,47.3681483889293]},"properties":{"Ort":"Zürich","www":"http://www.stadt-zuerich.ch/content/ssd/de/index/volksschule/schulkreise_kreisschulpflegen/letzi/schulen/schule_triemli/kindergaerten.html","Adresse":"Rossackerstrasse 16","PLZ":"8047","Tel":"044 461 17 60","Name":"Goldacker 2"}}
,{"type":"Feature","geometry":{"type":"Point","coordinates":[8.501311563991,47.4019501937713]},"properties":{"Ort":"Zürich","www":"http://www.stadt-zuerich.ch/content/ssd/de/index/volksschule/schulkreise_kreisschulpflegen/waidberg/schulen/blaesi_schuleinheit/kindergarten.html","Adresse":"Bläsistrasse 15","PLZ":"8049","Tel":"043 311 31 49","Name":"Bläsistrasse 1"}}
,{"type":"Feature","geometry":{"type":"Point","coordinates":[8.48325091894197,47.3854029084811]},"properties":{"Ort":"Zürich","www":"http://www.stadt-zuerich.ch/content/ssd/de/index/volksschule/schulkreise_kreisschulpflegen/letzi/schulen/schule_altstetterstrasse/kindergaerten.html","Adresse":"Eugen-Huber-Strasse 21","PLZ":"8048","Tel":"044 431 13 17","Name":"Eugen Huber-Strasse 21"}}
,{"type":"Feature","geometry":{"type":"Point","coordinates":[8.52628088089279,47.353285349337]},"properties":{"Ort":"Zürich","www":"http://www.stadt-zuerich.ch/content/ssd/de/index/volksschule/schulkreise_kreisschulpflegen/uto/schulen/manegg_schuleinheit/kindergarten.html","Adresse":"Rieterstrasse 106","PLZ":"8002","Tel":"044 201 12 65","Name":"Rieterstrasse"}}
,{"type":"Feature","geometry":{"type":"Point","coordinates":[8.56988167006265,47.4148352116493]},"properties":{"Ort":"Zürich","www":"http://www.stadt-zuerich.ch/content/ssd/de/index/volksschule/schulkreise_kreisschulpflegen/schwamendingen/schulen/auzelg_schuleinheit/kindergarten.html","Adresse":"Auzelg 60","PLZ":"8050","Tel":"044 321 15 06","Name":"Auzelg"}}
,{"type":"Feature","geometry":{"type":"Point","coordinates":[8.54101369321089,47.3854236887669]},"properties":{"Ort":"Zürich","www":"http://www.stadt-zuerich.ch/content/ssd/de/index/volksschule/schulkreise_kreisschulpflegen/waidberg/schulen/roesli_weinberg_turner_schuleinheit/kindergarten.html","Adresse":"Beckenhofstrasse 37","PLZ":"8006","Tel":"044 361 52 78","Name":"Beckenhof"}}
,{"type":"Feature","geometry":{"type":"Point","coordinates":[8.59088937559408,47.4029021805841]},"properties":{"Ort":"Zürich","www":"http://www.stadt-zuerich.ch/content/ssd/de/index/volksschule/schulkreise_kreisschulpflegen/schwamendingen/schulen/hirzenbach_schuleinheit/kindergarten.html","Adresse":"Grosswiesenstrasse 176","PLZ":"8051","Tel":"044 321 05 26","Name":"Grosswiesen II"}}
,{"type":"Feature","geometry":{"type":"Point","coordinates":[8.50184593555563,47.3982378644427]},"properties":{"Ort":"Zürich","www":"http://www.stadt-zuerich.ch/content/ssd/de/index/volksschule/schulkreise_kreisschulpflegen/waidberg/schulen/am_wasser_schuleinheit/kindergarten.html","Adresse":"Am Wasser 100","PLZ":"8049","Tel":"044 341 27 85","Name":"Limmatgut 2"}}
,{"type":"Feature","geometry":{"type":"Point","coordinates":[8.54599233980455,47.3726068252259]},"properties":{"Ort":"Zürich","www":"http://www.stadt-zuerich.ch/content/ssd/de/index/volksschule/schulkreise_kreisschulpflegen/zuerichberg/schulen/hirschengraben_schuleinheit/kindergarten.html","Adresse":"Neumarkt 8","PLZ":"8001","Tel":"044 251 01 33","Name":"Neumarkt"}}
,{"type":"Feature","geometry":{"type":"Point","coordinates":[8.51116625093459,47.4147267511996]},"properties":{"Ort":"Zürich","www":"http://www.stadt-zuerich.ch/content/ssd/de/index/volksschule/schulkreise_kreisschulpflegen/glattal/schulen/schauenberg_schuleinheit/kindergarten.html","Adresse":"Bergacker 76a","PLZ":"8046","Tel":"044 371 61 22","Name":"Bergacker I"}}
,{"type":"Feature","geometry":{"type":"Point","coordinates":[8.56003867230518,47.3702729728083]},"properties":{"Ort":"Zürich","www":"http://www.stadt-zuerich.ch/content/ssd/de/index/volksschule/schulkreise_kreisschulpflegen/zuerichberg/schulen/illgen_schuleinheit/kindergarten.html","Adresse":"Sennhauserweg 10","PLZ":"8032","Tel":"044 261 24 21","Name":"Sennhauserweg 2"}}
,{"type":"Feature","geometry":{"type":"Point","coordinates":[8.55940173400146,47.3614673807907]},"properties":{"Ort":"Zürich","www":"http://www.stadt-zuerich.ch/content/ssd/de/index/volksschule/schulkreise_kreisschulpflegen/zuerichberg/schulen/neumuenster_schuleinheit/kindergarten.html","Adresse":"Neumünsterstrasse 25","PLZ":"8008","Tel":"044 381 04 26","Name":"Neumünster"}}
,{"type":"Feature","geometry":{"type":"Point","coordinates":[8.56099914731696,47.3719908616617]},"properties":{"Ort":"Zürich","www":"http://www.stadt-zuerich.ch/content/ssd/de/index/volksschule/schulkreise_kreisschulpflegen/zuerichberg/schulen/bungertwies_schuleinheit/kindergarten.html","Adresse":"Hofstrasse 60","PLZ":"8032","Tel":"043 222 67 80","Name":"Bungertwies 1"}}
,{"type":"Feature","geometry":{"type":"Point","coordinates":[8.52487054030624,47.3781951801514]},"properties":{"Ort":"Zürich","www":"http://www.stadt-zuerich.ch/content/ssd/de/index/volksschule/schulkreise_kreisschulpflegen/limmattal/schulen/aussersihl_schuleinheit/kindergarten.html","Adresse":"Hohlstrasse 68","PLZ":"8004","Tel":"043 322 24 67","Name":"Hohl Schulhaus"}}
,{"type":"Feature","geometry":{"type":"Point","coordinates":[8.53489797410158,47.3887855511001]},"properties":{"Ort":"Zürich","www":"http://www.stadt-zuerich.ch/ssd/de/index/volksschule/schulkreise_kreisschulpflegen/waidberg/schulen/letten_schuleinheit/kindergarten.html","Adresse":"Imfeldstrasse 6","PLZ":"8037","Tel":"044 362 56 11","Name":"Imfeldstrasse 1"}}
,{"type":"Feature","geometry":{"type":"Point","coordinates":[8.56554769357976,47.3619122715142]},"properties":{"Ort":"Zürich","www":"","Adresse":"Hofackerstrasse 45","PLZ":"8032","Tel":"043 488 55 52","Name":"Hofacker 2"}}
,{"type":"Feature","geometry":{"type":"Point","coordinates":[8.58664336221617,47.3567359813478]},"properties":{"Ort":"Zürich","www":"http://www.stadt-zuerich.ch/content/ssd/de/index/volksschule/schulkreise_kreisschulpflegen/zuerichberg/schulen/looren_schuleinheit/kindergarten.html","Adresse":"Heilighüsli 19","PLZ":"8053","Tel":"043 443 01 15","Name":"Langmatt"}}
,{"type":"Feature","geometry":{"type":"Point","coordinates":[8.54853537490654,47.4266884415571]},"properties":{"Ort":"Zürich","www":"http://www.stadt-zuerich.ch/content/ssd/de/index/volksschule/schulkreise_kreisschulpflegen/glattal/schulen/kolbenacker_schuleinheit/kindergarten.html","Adresse":"Kolbenacker 11","PLZ":"8052","Tel":"044 302 53 08","Name":"Frohbühl II"}}
,{"type":"Feature","geometry":{"type":"Point","coordinates":[8.54694822830419,47.4228326596562]},"properties":{"Ort":"Zürich","www":"http://www.stadt-zuerich.ch/content/ssd/de/index/volksschule/schulkreise_kreisschulpflegen/glattal/schulen/buhn_schuleinheit/kindergaerten.html","Adresse":"Katzenbachstrasse 90","PLZ":"8052","Tel":"044 302 51 05","Name":"Katzenbach II"}}
,{"type":"Feature","geometry":{"type":"Point","coordinates":[8.48908636657955,47.3962975289979]},"properties":{"Ort":"Zürich","www":"","Adresse":"Grünauring 26","PLZ":"8064","Tel":"043 311 72 27","Name":"Grünau 5"}}
,{"type":"Feature","geometry":{"type":"Point","coordinates":[8.51175529153584,47.4225369007461]},"properties":{"Ort":"Zürich","www":"http://www.stadt-zuerich.ch/content/ssd/de/index/volksschule/schulkreise_kreisschulpflegen/glattal/schulen/im_isengrind_schuleinheit/kindergarten.html","Adresse":"Im Isengrind 16","PLZ":"8046","Tel":"044 371 61 74","Name":"Isengrind II"}}
,{"type":"Feature","geometry":{"type":"Point","coordinates":[8.55566805196004,47.4066085995674]},"properties":{"Ort":"Zürich","www":"http://www.stadt-zuerich.ch/content/ssd/de/index/volksschule/schulkreise_kreisschulpflegen/glattal/schulen/apfelbaum_schuleinheit/kindergarten.html","Adresse":"Apfelbaumstrasse 31","PLZ":"8050","Tel":"043 300 61 80","Name":"Apfelbaum I"}}
,{"type":"Feature","geometry":{"type":"Point","coordinates":[8.50973902136598,47.3542322748981]},"properties":{"Ort":"Zürich","www":"http://www.stadt-zuerich.ch/content/ssd/de/index/volksschule/schulkreise_kreisschulpflegen/uto/schulen/friesenberg_schuleinheit/kindergarten.html","Adresse":"Frauentalweg 39","PLZ":"8045","Tel":"044 462 51 24","Name":"Frauentalweg II"}}
,{"type":"Feature","geometry":{"type":"Point","coordinates":[8.54901112867622,47.3822999643184]},"properties":{"Ort":"Zürich","www":"http://www.stadt-zuerich.ch/content/ssd/de/index/volksschule/schulkreise_kreisschulpflegen/waidberg/schulen/hutten_schuleinheit/kindergaerten.html","Adresse":"Huttenstrasse 14","PLZ":"8006","Tel":"043 255 15 69","Name":"Hutten Pavillon 1"}}
,{"type":"Feature","geometry":{"type":"Point","coordinates":[8.59208785801321,47.3991494672854]},"properties":{"Ort":"Zürich","www":"http://www.stadt-zuerich.ch/ssd/de/index/volksschule/schulkreise_kreisschulpflegen/schwamendingen/schulen/mattenhof_schuleinheit/grundstufe.html","Adresse":"Mattenhof 15","PLZ":"8051","Tel":"044 321 52 35","Name":"Mattenhof 15"}}
,{"type":"Feature","geometry":{"type":"Point","coordinates":[8.51294691539554,47.3754914420822]},"properties":{"Ort":"Zürich","www":"http://www.stadt-zuerich.ch/content/ssd/de/index/volksschule/schulkreise_kreisschulpflegen/limmattal/schulen/aemtler_a_schuleinheit/kindergarten.html","Adresse":"Zurlindenstrasse 235","PLZ":"8003","Tel":"044 451 11 75","Name":"Zurlinden"}}
,{"type":"Feature","geometry":{"type":"Point","coordinates":[8.49390943297646,47.3755287940278]},"properties":{"Ort":"Zürich","www":"http://www.stadt-zuerich.ch/content/ssd/de/index/volksschule/schulkreise_kreisschulpflegen/letzi/schulen/schule_altweg/kindergaerten.html","Adresse":"Ginsterstrasse 25","PLZ":"8047","Tel":"044 491 59 56","Name":"Ginsterstrasse 25"}}
,{"type":"Feature","geometry":{"type":"Point","coordinates":[8.47331606029417,47.3885871837418]},"properties":{"Ort":"Zürich","www":"http://www.stadt-zuerich.ch/content/ssd/de/index/volksschule/schulkreise_kreisschulpflegen/letzi/schulen/schule_chriesiweg/kindergaerten.html","Adresse":"Eugen-Huber-Strasse 150","PLZ":"8048","Tel":"044 434 81 19","Name":"Chriesiweg 1"}}
,{"type":"Feature","geometry":{"type":"Point","coordinates":[8.48829959864036,47.3741653809913]},"properties":{"Ort":"Zürich","www":"http://www.stadt-zuerich.ch/content/ssd/de/index/volksschule/schulkreise_kreisschulpflegen/letzi/schulen/schule_in_der_ey/kindergaerten.html","Adresse":"In der Ey 20","PLZ":"8047","Tel":"043 311 10 67","Name":"In der Ey 2"}}
,{"type":"Feature","geometry":{"type":"Point","coordinates":[8.46976541257225,47.388130682644]},"properties":{"Ort":"Zürich","www":"http://www.stadt-zuerich.ch/content/ssd/de/index/volksschule/schulkreise_kreisschulpflegen/letzi/schulen/schule_loogarten/kindergaerten.html","Adresse":"Rautistrasse 387","PLZ":"8048","Tel":"044 431 30 80","Name":"Im Talbächli 2"}}
,{"type":"Feature","geometry":{"type":"Point","coordinates":[8.52874836906541,47.3356702259481]},"properties":{"Ort":"Zürich","www":"http://www.stadt-zuerich.ch/content/ssd/de/index/volksschule/schulkreise_kreisschulpflegen/uto/schulen/entlisberg_schuleinheit/kindergarten.html","Adresse":"Moosstrasse 74","PLZ":"8038","Tel":"044 481 83 29","Name":"Moos I"}}
,{"type":"Feature","geometry":{"type":"Point","coordinates":[8.48053279053202,47.3885860308853]},"properties":{"Ort":"Zürich","www":"http://www.stadt-zuerich.ch/content/ssd/de/index/volksschule/schulkreise_kreisschulpflegen/letzi/schulen/schule_dachslernstrasse/kindergaerten.html","Adresse":"Dachslernstrasse 22","PLZ":"8048","Tel":"044 431 90 13","Name":"Studerhaus"}}
,{"type":"Feature","geometry":{"type":"Point","coordinates":[8.54196006982515,47.4314987980805]},"properties":{"Ort":"Zürich","www":"http://www.stadt-zuerich.ch/content/ssd/de/index/volksschule/schulkreise_kreisschulpflegen/glattal/schulen/buchwiesen_schuleinheit/kindergarten.html","Adresse":"Caspar-Wüst-Strasse 56","PLZ":"8052","Tel":"044 302 53 14","Name":"Caspar Wüst I"}}
,{"type":"Feature","geometry":{"type":"Point","coordinates":[8.54205824552051,47.4229220536737]},"properties":{"Ort":"Zürich","www":"http://www.stadt-zuerich.ch/content/ssd/de/index/volksschule/schulkreise_kreisschulpflegen/glattal/schulen/buhn_schuleinheit/kindergaerten.html","Adresse":"Seebacherstrasse 63","PLZ":"8052","Tel":"044 302 75 58","Name":"Seebacher I"}}
,{"type":"Feature","geometry":{"type":"Point","coordinates":[8.51702437485214,47.3335355329772]},"properties":{"Ort":"Zürich","www":"http://www.stadt-zuerich.ch/content/ssd/de/index/volksschule/schulkreise_kreisschulpflegen/uto/schulen/falletsche_leimbach_schuleineheit/kindergaerten.html","Adresse":"Bruderwies 55","PLZ":"8041","Tel":"044 482 16 90","Name":"Bruderwies I"}}
,{"type":"Feature","geometry":{"type":"Point","coordinates":[8.49849184405245,47.4202873695007]},"properties":{"Ort":"Zürich","www":"http://www.stadt-zuerich.ch/content/ssd/de/index/volksschule/schulkreise_kreisschulpflegen/glattal/schulen/holderbach_schuleinheit/kindergarten.html","Adresse":"Georg-Kempf-Strasse 63","PLZ":"8046","Tel":"044 371 29 58","Name":"Furttal"}}
,{"type":"Feature","geometry":{"type":"Point","coordinates":[8.57961289173719,47.4057021779111]},"properties":{"Ort":"Zürich","www":"http://www.stadt-zuerich.ch/content/ssd/de/index/volksschule/schulkreise_kreisschulpflegen/schwamendingen/schulen/luchswiesen_schuleinheit/kindergarten.html","Adresse":"Winterthurerstrasse 633a","PLZ":"8051","Tel":"044 321 01 40","Name":"Winterthurerstrasse"}}
,{"type":"Feature","geometry":{"type":"Point","coordinates":[8.60088410901696,47.3546260323886]},"properties":{"Ort":"Zürich","www":"http://www.stadt-zuerich.ch/content/ssd/de/index/volksschule/schulkreise_kreisschulpflegen/zuerichberg/schulen/looren_schuleinheit/kindergarten.html","Adresse":"Trichtenhausenstrasse 128","PLZ":"8053","Tel":"044 422 48 80","Name":"Steinacker 1"}}
,{"type":"Feature","geometry":{"type":"Point","coordinates":[8.5738945626485,47.3541635564535]},"properties":{"Ort":"Zürich","www":"http://www.stadt-zuerich.ch/content/ssd/de/index/volksschule/schulkreise_kreisschulpflegen/zuerichberg/schulen/balgrist_kartaus_schuleinheit/horte_betreuung.html","Adresse":"Lenggstrasse 70","PLZ":"8008","Tel":"044 422 74 05","Name":"Lengg"}}
,{"type":"Feature","geometry":{"type":"Point","coordinates":[8.56036167015132,47.368991417322]},"properties":{"Ort":"Zürich","www":"http://www.stadt-zuerich.ch/content/ssd/de/index/volksschule/schulkreise_kreisschulpflegen/zuerichberg/schulen/illgen_schuleinheit/kindergarten.html","Adresse":"Ilgenstrasse 15","PLZ":"8032","Tel":"044 413 00 90","Name":"Ilgen 1"}}
,{"type":"Feature","geometry":{"type":"Point","coordinates":[8.57808750235642,47.4037972587673]},"properties":{"Ort":"Zürich","www":"http://www.stadt-zuerich.ch/content/ssd/de/index/volksschule/schulkreise_kreisschulpflegen/schwamendingen/schulen/probstei_schuleinheit/kindergarten.html","Adresse":"Altwiesenstrasse 15","PLZ":"8051","Tel":"044 321 52 46","Name":"Altwiesenstrasse"}}
,{"type":"Feature","geometry":{"type":"Point","coordinates":[8.57746658548074,47.3543230556021]},"properties":{"Ort":"Zürich","www":"http://www.stadt-zuerich.ch/content/ssd/de/index/volksschule/schulkreise_kreisschulpflegen/zuerichberg/schulen/balgrist_kartaus_schuleinheit/kindergarten.html","Adresse":"Balgriststrasse 55","PLZ":"8008","Tel":"044 381 39 10","Name":"Balgrist 1"}}
,{"type":"Feature","geometry":{"type":"Point","coordinates":[8.56099914731696,47.3719908616617]},"properties":{"Ort":"Zürich","www":"http://www.stadt-zuerich.ch/content/ssd/de/index/volksschule/schulkreise_kreisschulpflegen/zuerichberg/schulen/bungertwies_schuleinheit/kindergarten.html","Adresse":"Hofstrasse 60","PLZ":"8032","Tel":"043 222 67 82","Name":"Bungertwies 2"}}
,{"type":"Feature","geometry":{"type":"Point","coordinates":[8.47910037657035,47.3921172457746]},"properties":{"Ort":"Zürich","www":"http://www.stadt-zuerich.ch/content/ssd/de/index/volksschule/schulkreise_kreisschulpflegen/letzi/schulen/schule_im_herrlig/kindergaerten.html","Adresse":"Hermetschloostrasse 33","PLZ":"8048","Tel":"044 432 74 40","Name":"Im Herrlig 3"}}
,{"type":"Feature","geometry":{"type":"Point","coordinates":[8.5521027775375,47.3806868969208]},"properties":{"Ort":"Zürich","www":"http://www.stadt-zuerich.ch/content/ssd/de/index/volksschule/schulkreise_kreisschulpflegen/zuerichberg/schulen/fluntern_schuleinheit/kindergarten.html","Adresse":"Hochstrasse 25","PLZ":"8044","Tel":"044 362 93 67","Name":"Hochstrasse"}}
,{"type":"Feature","geometry":{"type":"Point","coordinates":[8.58248992648333,47.4041538621987]},"properties":{"Ort":"Zürich","www":"http://www.stadt-zuerich.ch/content/ssd/de/index/volksschule/schulkreise_kreisschulpflegen/schwamendingen/schulen/luchswiesen_schuleinheit/kindergarten.html","Adresse":"Glattwiesenstrasse 86","PLZ":"8051","Tel":"044 325 18 89/90","Name":"Luchswiesen"}}
,{"type":"Feature","geometry":{"type":"Point","coordinates":[8.53279883132446,47.4044450946213]},"properties":{"Ort":"Zürich","www":"http://www.stadt-zuerich.ch/content/ssd/de/index/volksschule/schulkreise_kreisschulpflegen/glattal/schulen/kuegeliloo_schuleinheit/kindergarten.html","Adresse":"Nordheimstrasse 6","PLZ":"8057","Tel":"044 363 20 70","Name":"Nordheim"}}
,{"type":"Feature","geometry":{"type":"Point","coordinates":[8.50380774910189,47.4193703262159]},"properties":{"Ort":"Zürich","www":"http://www.stadt-zuerich.ch/content/ssd/de/index/volksschule/schulkreise_kreisschulpflegen/glattal/schulen/holderbach_schuleinheit/kindergarten.html","Adresse":"Wehntalerstrasse 563","PLZ":"8046","Tel":"044 377 80 47","Name":"Holderbach II"}}
,{"type":"Feature","geometry":{"type":"Point","coordinates":[8.5401822928217,47.415642619816]},"properties":{"Ort":"Zürich","www":"http://www.stadt-zuerich.ch/content/ssd/de/index/volksschule/schulkreise_kreisschulpflegen/glattal/schulen/im_birch_schuleinheit/kindergarten.html","Adresse":"Margrit-Rainer-Strasse 5","PLZ":"8050","Tel":"043 300 67 07","Name":"Im Birch I"}}
,{"type":"Feature","geometry":{"type":"Point","coordinates":[8.51504722867869,47.4237939535923]},"properties":{"Ort":"Zürich","www":"http://www.stadt-zuerich.ch/content/ssd/de/index/volksschule/schulkreise_kreisschulpflegen/glattal/schulen/im_isengrind_schuleinheit/kindergarten.html","Adresse":"Wolfswinkel 12","PLZ":"8046","Tel":"044 371 61 87","Name":"Wolfswinkel"}}
,{"type":"Feature","geometry":{"type":"Point","coordinates":[8.50407275520342,47.3658498249272]},"properties":{"Ort":"Zürich","www":"http://www.stadt-zuerich.ch/content/ssd/de/index/volksschule/schulkreise_kreisschulpflegen/uto/schulen/kuengenmatt_schuleinheit/kindergarten.html","Adresse":"Döltschiweg 135","PLZ":"8055","Tel":"044 463 52 82","Name":"Döltschiweg II"}}
,{"type":"Feature","geometry":{"type":"Point","coordinates":[8.50494157306831,47.3586291795318]},"properties":{"Ort":"Zürich","www":"http://www.stadt-zuerich.ch/content/ssd/de/index/volksschule/schulkreise_kreisschulpflegen/uto/schulen/friesenberg_schuleinheit/kindergarten.html","Adresse":"Im Rossweidli 33","PLZ":"8045","Tel":"044 463 57 00","Name":"Rossweidli II"}}
,{"type":"Feature","geometry":{"type":"Point","coordinates":[8.51726865598243,47.3674883632498]},"properties":{"Ort":"Zürich","www":"http://www.stadt-zuerich.ch/content/ssd/de/index/volksschule/schulkreise_kreisschulpflegen/uto/schulen/buehl_schuleinheit/kindergarten.html","Adresse":"Meiliweg 6","PLZ":"8055","Tel":"044 462 92 53","Name":"Meiliweg II"}}
,{"type":"Feature","geometry":{"type":"Point","coordinates":[8.50527615805513,47.3943145920777]},"properties":{"Ort":"Zürich","www":"http://www.stadt-zuerich.ch/content/ssd/de/index/volksschule/schulkreise_kreisschulpflegen/waidberg/schulen/am_wasser_schuleinheit/kindergarten.html","Adresse":"Hardturmstrasse 402","PLZ":"8005","Tel":"044 271 13 29","Name":"Am Wasser Pavillon"}}
,{"type":"Feature","geometry":{"type":"Point","coordinates":[8.49966162855914,47.404127701411]},"properties":{"Ort":"Zürich","www":"http://www.stadt-zuerich.ch/content/ssd/de/index/volksschule/schulkreise_kreisschulpflegen/waidberg/schulen/vogtsrain_schuleinheit/kindergarten.html","Adresse":"Ferdinand-Hodler-Strasse 23","PLZ":"8049","Tel":"043 244 40 88","Name":"Vogtsrain 2"}}
,{"type":"Feature","geometry":{"type":"Point","coordinates":[8.48099413723721,47.4144382215826]},"properties":{"Ort":"Zürich","www":"http://www.stadt-zuerich.ch/content/ssd/de/index/volksschule/schulkreise_kreisschulpflegen/waidberg/schulen/ruetihof_schuleinheit/kindergarten.html","Adresse":"Geeringstrasse 30a","PLZ":"8049","Tel":"044 342 00 55","Name":"Geeringstrasse 2"}}
,{"type":"Feature","geometry":{"type":"Point","coordinates":[8.5097413887466,47.3692772684958]},"properties":{"Ort":"Zürich","www":"http://www.stadt-zuerich.ch/content/ssd/de/index/volksschule/schulkreise_kreisschulpflegen/uto/schulen/buehl_schuleinheit/kindergarten.html","Adresse":"Höfliweg 14","PLZ":"8055","Tel":"044 461 38 79","Name":"Höfliweg II"}}
,{"type":"Feature","geometry":{"type":"Point","coordinates":[8.50163391196988,47.4249423009167]},"properties":{"Ort":"Zürich","www":"http://www.stadt-zuerich.ch/content/ssd/de/index/volksschule/schulkreise_kreisschulpflegen/glattal/schulen/ruggaecher_schuleinheit/kindergarten.html","Adresse":"Mühlackerstrasse 90","PLZ":"8046","Tel":"044 377 31 30","Name":"Ruggächer 4"}}
,{"type":"Feature","geometry":{"type":"Point","coordinates":[8.54557341684218,47.4075507467013]},"properties":{"Ort":"Zürich","www":"http://www.stadt-zuerich.ch/content/ssd/de/index/volksschule/schulkreise_kreisschulpflegen/glattal/schulen/gubel_schuleinheit/kindergarten.html","Adresse":"Gubelstrasse 9","PLZ":"8050","Tel":"044 312 07 03","Name":"Halde C3"}}
,{"type":"Feature","geometry":{"type":"Point","coordinates":[8.53002763221977,47.3861671563987]},"properties":{"Ort":"Zürich","www":"http://www.stadt-zuerich.ch/content/ssd/de/index/volksschule/schulkreise_kreisschulpflegen/limmattal/schulen/kornhaus_schuleinheit/grundstufen.html","Adresse":"Limmatstrasse 176","PLZ":"8005","Tel":"044 274 37 09","Name":"Kornhaus C"}}
,{"type":"Feature","geometry":{"type":"Point","coordinates":[8.48230301666788,47.3805285601957]},"properties":{"Ort":"Zürich","www":"http://www.stadt-zuerich.ch/content/ssd/de/index/volksschule/schulkreise_kreisschulpflegen/letzi/schulen/schule_untermoos/kindergaerten.html","Adresse":"Altstetterstrasse 248","PLZ":"8048","Tel":"044 431 72 58","Name":"Untermoos 1"}}
,{"type":"Feature","geometry":{"type":"Point","coordinates":[8.48131558065768,47.3818299601066]},"properties":{"Ort":"Zürich","www":"http://www.stadt-zuerich.ch/content/ssd/de/index/volksschule/schulkreise_kreisschulpflegen/letzi/schulen/schule_untermoos/kindergaerten.html","Adresse":"Wickenweg 18","PLZ":"8048","Tel":"044 432 50 77","Name":"Wickenweg"}}
,{"type":"Feature","geometry":{"type":"Point","coordinates":[8.5058594232671,47.3785069772764]},"properties":{"Ort":"Zürich","www":"http://www.stadt-zuerich.ch/content/ssd/de/index/volksschule/schulkreise_kreisschulpflegen/limmattal/schulen/aemtler_a_schuleinheit/kindergarten.html","Adresse":"Brahmsstrasse 47","PLZ":"8003","Tel":"044 491 53 26","Name":"Brahms 47"}}
,{"type":"Feature","geometry":{"type":"Point","coordinates":[8.50832644097112,47.3588509405362]},"properties":{"Ort":"Zürich","www":"http://www.stadt-zuerich.ch/content/ssd/de/index/volksschule/schulkreise_kreisschulpflegen/uto/schulen/friesenberg_schuleinheit/kindergarten.html","Adresse":"Schweighofstrasse 180","PLZ":"8045","Tel":"044 463 20 87","Name":"Schweighof 180"}}
,{"type":"Feature","geometry":{"type":"Point","coordinates":[8.48829959864036,47.3741653809913]},"properties":{"Ort":"Zürich","www":"http://www.stadt-zuerich.ch/content/ssd/de/index/volksschule/schulkreise_kreisschulpflegen/letzi/schulen/schule_in_der_ey/kindergaerten.html","Adresse":"In der Ey 20","PLZ":"8047","Tel":"043 311 10 65","Name":"In der Ey 1"}}
,{"type":"Feature","geometry":{"type":"Point","coordinates":[8.49803499917575,47.3713104001667]},"properties":{"Ort":"Zürich","www":"http://www.stadt-zuerich.ch/content/ssd/de/index/volksschule/schulkreise_kreisschulpflegen/letzi/schulen/schule_letzi/kindergaerten.html","Adresse":"Espenhofweg 60","PLZ":"8047","Tel":"043 311 15 63","Name":"Letzi 2"}}
,{"type":"Feature","geometry":{"type":"Point","coordinates":[8.49211965029785,47.3681483889293]},"properties":{"Ort":"Zürich","www":"http://www.stadt-zuerich.ch/content/ssd/de/index/volksschule/schulkreise_kreisschulpflegen/letzi/schulen/schule_triemli/kindergaerten.html","Adresse":"Rossackerstrasse 16","PLZ":"8047","Tel":"044 461 17 60","Name":"Goldacker 1"}}
,{"type":"Feature","geometry":{"type":"Point","coordinates":[8.49702681532843,47.3802535009985]},"properties":{"Ort":"Zürich","www":"http://www.stadt-zuerich.ch/content/ssd/de/index/volksschule/schulkreise_kreisschulpflegen/letzi/schulen/schule_utogrund/kindergaerten.html","Adresse":"Dennlerstrasse 27","PLZ":"8047","Tel":"044 401 08 82","Name":"Utogrund 1"}}
,{"type":"Feature","geometry":{"type":"Point","coordinates":[8.53114557411849,47.3600669273005]},"properties":{"Ort":"Zürich","www":"http://www.stadt-zuerich.ch/content/ssd/de/index/volksschule/schulkreise_kreisschulpflegen/uto/schulen/gabler_schuleinheit/kindergarten.html","Adresse":"Grütlistrasse 76","PLZ":"8002","Tel":"044 201 16 74","Name":"Grütli I"}}
,{"type":"Feature","geometry":{"type":"Point","coordinates":[8.53869054458634,47.4275126912155]},"properties":{"Ort":"Zürich","www":"http://www.stadt-zuerich.ch/content/ssd/de/index/volksschule/schulkreise_kreisschulpflegen/glattal/schulen/buchwiesen_schuleinheit/kindergarten.html","Adresse":"Schönauring 61","PLZ":"8052","Tel":"044 302 53 38","Name":"Schönauring I"}}
,{"type":"Feature","geometry":{"type":"Point","coordinates":[8.54694822830419,47.4228326596562]},"properties":{"Ort":"Zürich","www":"http://www.stadt-zuerich.ch/content/ssd/de/index/volksschule/schulkreise_kreisschulpflegen/glattal/schulen/buhn_schuleinheit/kindergaerten.html","Adresse":"Katzenbachstrasse 90","PLZ":"8052","Tel":"044 302 51 05","Name":"Katzenbach I"}}
,{"type":"Feature","geometry":{"type":"Point","coordinates":[8.53155737217824,47.3900106677256]},"properties":{"Ort":"Zürich","www":"http://www.stadt-zuerich.ch/ssd/de/index/volksschule/schulkreise_kreisschulpflegen/waidberg/schulen/letten_schuleinheit/kindergarten.html","Adresse":"Lettenstrasse 15","PLZ":"8037","Tel":"044 363 21 41","Name":"Lettenstrasse"}}
,{"type":"Feature","geometry":{"type":"Point","coordinates":[8.53734120978809,47.4228544189304]},"properties":{"Ort":"Zürich","www":"http://www.stadt-zuerich.ch/content/ssd/de/index/volksschule/schulkreise_kreisschulpflegen/glattal/schulen/heumatt_schuleinheit/kindergarten.html","Adresse":"Schwandenholzstrasse 12","PLZ":"8052","Tel":"044 301 41 00","Name":"Heumatt I"}}
,{"type":"Feature","geometry":{"type":"Point","coordinates":[8.53287683890232,47.3384558147333]},"properties":{"Ort":"Zürich","www":"http://www.stadt-zuerich.ch/content/ssd/de/index/volksschule/schulkreise_kreisschulpflegen/uto/schulen/wollishofen_im_lee_schuleinheit/kindergarten.html","Adresse":"Honeggerweg 8","PLZ":"8038","Tel":"044 482 06 31","Name":"Honeggerweg I"}}
,{"type":"Feature","geometry":{"type":"Point","coordinates":[8.5253944155694,47.4136664417247]},"properties":{"Ort":"Zürich","www":"http://www.stadt-zuerich.ch/content/ssd/de/index/volksschule/schulkreise_kreisschulpflegen/glattal/schulen/huerstholz_schuleinheit/kindergarten.html","Adresse":"Binzmühlestrasse 325","PLZ":"8046","Tel":"044 371 31 01","Name":"Holzmatt"}}
,{"type":"Feature","geometry":{"type":"Point","coordinates":[8.56894416631974,47.4087261592519]},"properties":{"Ort":"Zürich","www":"http://www.stadt-zuerich.ch/content/ssd/de/index/volksschule/schulkreise_kreisschulpflegen/schwamendingen/schulen/auhof_schuleinheit/kindergarten.html","Adresse":"Luegislandstrasse 133","PLZ":"8051","Tel":"044 321 74 44/47","Name":"Luegislandstrasse"}}
,{"type":"Feature","geometry":{"type":"Point","coordinates":[8.51411050314788,47.4231406728666]},"properties":{"Ort":"Zürich","www":"http://www.stadt-zuerich.ch/content/ssd/de/index/volksschule/schulkreise_kreisschulpflegen/glattal/schulen/im_isengrind_schuleinheit/kindergarten.html","Adresse":"Wolfswinkel 3","PLZ":"8046","Tel":"044 372 11 42","Name":"Reckenholz I"}}
,{"type":"Feature","geometry":{"type":"Point","coordinates":[8.56889283644007,47.4135805992905]},"properties":{"Ort":"Zürich","www":"http://www.stadt-zuerich.ch/content/ssd/de/index/volksschule/schulkreise_kreisschulpflegen/schwamendingen/schulen/auzelg_schuleinheit/kindergarten.html","Adresse":"Auwiesenstrasse 49","PLZ":"8050","Tel":"044 321 77 15","Name":"Auwiesenstrasse"}}
,{"type":"Feature","geometry":{"type":"Point","coordinates":[8.52599764427836,47.3931437170893]},"properties":{"Ort":"Zürich","www":"http://www.stadt-zuerich.ch/content/ssd/de/index/volksschule/schulkreise_kreisschulpflegen/waidberg/schulen/nordstrasse_schuleinheit/kindergarten.html","Adresse":"Habsburgstrasse 42","PLZ":"8037","Tel":"044 271 42 10","Name":"Habsburgstrasse"}}
,{"type":"Feature","geometry":{"type":"Point","coordinates":[8.52808295844808,47.3922851019408]},"properties":{"Ort":"Zürich","www":"http://www.stadt-zuerich.ch/content/ssd/de/index/volksschule/schulkreise_kreisschulpflegen/waidberg/schulen/nordstrasse_schuleinheit/kindergarten.html","Adresse":"Landenbergstrasse 14","PLZ":"8037","Tel":"044 271 74 75","Name":"Landenbergstrasse"}}
,{"type":"Feature","geometry":{"type":"Point","coordinates":[8.547631127877,47.3861945546509]},"properties":{"Ort":"Zürich","www":"http://www.stadt-zuerich.ch/content/ssd/de/index/volksschule/schulkreise_kreisschulpflegen/waidberg/schulen/scherr_schuleinheit/kindergarten.html","Adresse":"Ottikerweg 9","PLZ":"8006","Tel":"044 362 41 97","Name":"Ottikerweg 1"}}
,{"type":"Feature","geometry":{"type":"Point","coordinates":[8.58121824304458,47.3593346828919]},"properties":{"Ort":"Zürich","www":"http://www.stadt-zuerich.ch/content/ssd/de/index/volksschule/schulkreise_kreisschulpflegen/zuerichberg/schulen/looren_schuleinheit/kindergarten.html","Adresse":"Witikonerstrasse 238","PLZ":"8053","Tel":"044 381 26 28","Name":"Witikonerstrasse"}}
,{"type":"Feature","geometry":{"type":"Point","coordinates":[8.56947067615778,47.3596696936001]},"properties":{"Ort":"Zürich","www":"http://www.stadt-zuerich.ch/content/ssd/de/index/volksschule/schulkreise_kreisschulpflegen/zuerichberg/schulen/hirslanden_schuleinheit/kindergarten.html","Adresse":"Forchstrasse 217","PLZ":"8032","Tel":"043 488 38 18","Name":"Hirslanden"}}
,{"type":"Feature","geometry":{"type":"Point","coordinates":[8.56003867230518,47.3702729728083]},"properties":{"Ort":"Zürich","www":"http://www.stadt-zuerich.ch/content/ssd/de/index/volksschule/schulkreise_kreisschulpflegen/zuerichberg/schulen/illgen_schuleinheit/kindergarten.html","Adresse":"Sennhauserweg 10","PLZ":"8032","Tel":"044 261 24 19","Name":"Sennhauserweg 1"}}
,{"type":"Feature","geometry":{"type":"Point","coordinates":[8.55889896254122,47.3760418888069]},"properties":{"Ort":"Zürich","www":"http://www.stadt-zuerich.ch/content/ssd/de/index/volksschule/schulkreise_kreisschulpflegen/zuerichberg/schulen/fluntern_schuleinheit/kindergarten.html","Adresse":"Hochstrasse 118","PLZ":"8044","Tel":"043 268 23 40","Name":"Fluntern 1"}}
,{"type":"Feature","geometry":{"type":"Point","coordinates":[8.59610878919298,47.3612099277051]},"properties":{"Ort":"Zürich","www":"http://www.stadt-zuerich.ch/ssd/de/index/volksschule/schulkreise_kreisschulpflegen/zuerichberg/schulen/looren_schuleinheit/kindergarten.html","Adresse":"Katzenschwanzstrasse 7","PLZ":"8053","Tel":"043 499 12 89","Name":"Looren A 2"}}
,{"type":"Feature","geometry":{"type":"Point","coordinates":[8.55909184857648,47.355906720933]},"properties":{"Ort":"Zürich","www":"http://www.stadt-zuerich.ch/content/ssd/de/index/volksschule/schulkreise_kreisschulpflegen/zuerichberg/schulen/balgrist_kartaus_schuleinheit/kindergarten.html","Adresse":"Mühlebachstrasse 180","PLZ":"8008","Tel":"044 269 60 72","Name":"Münchhalde"}}
,{"type":"Feature","geometry":{"type":"Point","coordinates":[8.54664831809657,47.3846870086665]},"properties":{"Ort":"Zürich","www":"http://www.stadt-zuerich.ch/content/ssd/de/index/volksschule/schulkreise_kreisschulpflegen/waidberg/schulen/scherr_schuleinheit/kindergarten.html","Adresse":"Stapferstrasse 51","PLZ":"8006","Tel":"044 363 62 28","Name":"Scherr"}}
,{"type":"Feature","geometry":{"type":"Point","coordinates":[8.49966162855914,47.404127701411]},"properties":{"Ort":"Zürich","www":"http://www.stadt-zuerich.ch/content/ssd/de/index/volksschule/schulkreise_kreisschulpflegen/waidberg/schulen/vogtsrain_schuleinheit/kindergarten.html","Adresse":"Ferdinand-Hodler-Strasse 23","PLZ":"8049","Tel":"043 244 40 77","Name":"Vogtsrain 1"}}
,{"type":"Feature","geometry":{"type":"Point","coordinates":[8.60088410901696,47.3546260323886]},"properties":{"Ort":"Zürich","www":"http://www.stadt-zuerich.ch/content/ssd/de/index/volksschule/schulkreise_kreisschulpflegen/zuerichberg/schulen/looren_schuleinheit/kindergarten.html","Adresse":"Trichtenhausenstrasse 128","PLZ":"8053","Tel":"044 422 48 94","Name":"Steinacker 2"}}
,{"type":"Feature","geometry":{"type":"Point","coordinates":[8.53248758697138,47.4124787354927]},"properties":{"Ort":"Zürich","www":"http://www.stadt-zuerich.ch/content/ssd/de/index/volksschule/schulkreise_kreisschulpflegen/glattal/schulen/kuegeliloo_schuleinheit/kindergarten.html","Adresse":"Regina-Kägi-Hof 11","PLZ":"8050","Tel":"044 312 47 30","Name":"Regina-Kägi-Hof I"}}
,{"type":"Feature","geometry":{"type":"Point","coordinates":[8.48841570237307,47.3839293544313]},"properties":{"Ort":"Zürich","www":"http://www.stadt-zuerich.ch/content/ssd/de/index/volksschule/schulkreise_kreisschulpflegen/letzi/schulen/schule_altstetterstrasse/kindergaerten.html","Adresse":"Luggwegstrasse 118","PLZ":"8048","Tel":"044 432 62 03","Name":"Luggwegstrasse 118"}}
,{"type":"Feature","geometry":{"type":"Point","coordinates":[8.51116625093459,47.4147267511996]},"properties":{"Ort":"Zürich","www":"http://www.stadt-zuerich.ch/content/ssd/de/index/volksschule/schulkreise_kreisschulpflegen/glattal/schulen/schauenberg_schuleinheit/kindergarten.html","Adresse":"Bergacker 76a","PLZ":"8046","Tel":"044 371 61 22","Name":"Bergacker II"}}
,{"type":"Feature","geometry":{"type":"Point","coordinates":[8.54196006982515,47.4314987980805]},"properties":{"Ort":"Zürich","www":"http://www.stadt-zuerich.ch/content/ssd/de/index/volksschule/schulkreise_kreisschulpflegen/glattal/schulen/buchwiesen_schuleinheit/kindergarten.html","Adresse":"Caspar-Wüst-Strasse 56","PLZ":"8052","Tel":"044 302 53 14","Name":"Caspar Wüst II"}}
,{"type":"Feature","geometry":{"type":"Point","coordinates":[8.53869054458634,47.4275126912155]},"properties":{"Ort":"Zürich","www":"http://www.stadt-zuerich.ch/content/ssd/de/index/volksschule/schulkreise_kreisschulpflegen/glattal/schulen/buchwiesen_schuleinheit/kindergarten.html","Adresse":"Schönauring 61","PLZ":"8052","Tel":"044 302 53 38","Name":"Schönauring II"}}
,{"type":"Feature","geometry":{"type":"Point","coordinates":[8.49114021325536,47.3876734967339]},"properties":{"Ort":"Zürich","www":"http://www.stadt-zuerich.ch/content/ssd/de/index/volksschule/schulkreise_kreisschulpflegen/letzi/schulen/schule_kappeli/kindergaerten.html","Adresse":"Luggwegstrasse 27","PLZ":"8048","Tel":"044 432 61 45","Name":"Kappeli 2"}}
,{"type":"Feature","geometry":{"type":"Point","coordinates":[8.53489797410158,47.3887855511001]},"properties":{"Ort":"Zürich","www":"http://www.stadt-zuerich.ch/ssd/de/index/volksschule/schulkreise_kreisschulpflegen/waidberg/schulen/letten_schuleinheit/kindergarten.html","Adresse":"Imfeldstrasse 6","PLZ":"8037","Tel":"044 362 56 11","Name":"Imfeldstrasse 2"}}
,{"type":"Feature","geometry":{"type":"Point","coordinates":[8.501311563991,47.4019501937713]},"properties":{"Ort":"Zürich","www":"http://www.stadt-zuerich.ch/content/ssd/de/index/volksschule/schulkreise_kreisschulpflegen/waidberg/schulen/blaesi_schuleinheit/kindergarten.html","Adresse":"Bläsistrasse 15","PLZ":"8049","Tel":"043 311 31 49","Name":"Bläsistrasse 2"}}
,{"type":"Feature","geometry":{"type":"Point","coordinates":[8.54379920773546,47.3882539729545]},"properties":{"Ort":"Zürich","www":"http://www.stadt-zuerich.ch/content/ssd/de/index/volksschule/schulkreise_kreisschulpflegen/waidberg/schulen/roesli_weinberg_turner_schuleinheit/kindergarten.html","Adresse":"Scheuchzerstrasse 85","PLZ":"8006","Tel":"044 364 17 19","Name":"Scheuchzerstrasse 2"}}
,{"type":"Feature","geometry":{"type":"Point","coordinates":[8.55889896254122,47.3760418888069]},"properties":{"Ort":"Zürich","www":"http://www.stadt-zuerich.ch/content/ssd/de/index/volksschule/schulkreise_kreisschulpflegen/zuerichberg/schulen/fluntern_schuleinheit/kindergarten.html","Adresse":"Hochstrasse 118","PLZ":"8044","Tel":"043 268 23 34","Name":"Fluntern 2"}}
,{"type":"Feature","geometry":{"type":"Point","coordinates":[8.48908921631666,47.3779429346878]},"properties":{"Ort":"Zürich","www":"","Adresse":"Else-Züblin-Strasse 24","PLZ":"8047","Tel":"044 400 21 03","Name":"In der Ey 5"}}
,{"type":"Feature","geometry":{"type":"Point","coordinates":[8.48908921631666,47.3779429346878]},"properties":{"Ort":"Zürich","www":"","Adresse":"Else-Züblin-Strasse 24","PLZ":"8047","Tel":"044 400 21 04","Name":"In der Ey 6"}}
,{"type":"Feature","geometry":{"type":"Point","coordinates":[8.52509251936965,47.3836747232142]},"properties":{"Ort":"Zürich","www":"http://www.stadt-zuerich.ch/content/ssd/de/index/volksschule/schulkreise_kreisschulpflegen/limmattal/schulen/limmat_b_c_schuleinheit/kindergarten.html","Adresse":"Neugasse 99","PLZ":"8005","Tel":"044 272 02 63","Name":"Neugasse"}}
,{"type":"Feature","geometry":{"type":"Point","coordinates":[8.51765201481879,47.3689977571911]},"properties":{"Ort":"Zürich","www":"http://www.stadt-zuerich.ch/content/ssd/de/index/volksschule/schulkreise_kreisschulpflegen/uto/schulen/buehl_schuleinheit/kindergarten.html","Adresse":"Schwendenweg 7","PLZ":"8003","Tel":"044 463 57 74","Name":"Schwendenweg I"}}
,{"type":"Feature","geometry":{"type":"Point","coordinates":[8.48677036288535,47.3726103960543]},"properties":{"Ort":"Zürich","www":"","Adresse":"Triemlistrasse 45","PLZ":"8047","Tel":"043 343 38 85","Name":"Triemli 1"}}
,{"type":"Feature","geometry":{"type":"Point","coordinates":[8.50022037255605,47.3620411062994]},"properties":{"Ort":"Zürich","www":"http://www.stadt-zuerich.ch/content/ssd/de/index/volksschule/schulkreise_kreisschulpflegen/uto/schulen/friesenberg_schuleinheit/kindergarten.html","Adresse":"Friesenberghalde 17","PLZ":"8055","Tel":"044 463 64 07","Name":"Friesenberghalde"}}
,{"type":"Feature","geometry":{"type":"Point","coordinates":[8.50797151170652,47.3965449956553]},"properties":{"Ort":"Zürich","www":"http://www.stadt-zuerich.ch/content/ssd/de/index/volksschule/schulkreise_kreisschulpflegen/waidberg/schulen/am_wasser_schuleinheit/kindergarten.html","Adresse":"Ackersteinstrasse 85","PLZ":"8049","Tel":"044 342 07 02","Name":"Ackersteinstrasse"}}
,{"type":"Feature","geometry":{"type":"Point","coordinates":[8.55296723390915,47.4039844980598]},"properties":{"Ort":"Zürich","www":"http://www.stadt-zuerich.ch/content/ssd/de/index/volksschule/schulkreise_kreisschulpflegen/glattal/schulen/apfelbaum_schuleinheit/kindergarten.html","Adresse":"Friedheimstrasse 34a","PLZ":"8057","Tel":"044 311 56 03","Name":"Friedheim"}}
,{"type":"Feature","geometry":{"type":"Point","coordinates":[8.52689907913903,47.3573937198532]},"properties":{"Ort":"Zürich","www":"http://www.stadt-zuerich.ch/content/ssd/de/index/volksschule/schulkreise_kreisschulpflegen/uto/schulen/gabler_schuleinheit/kindergarten.html","Adresse":"Waffenplatzstrasse 66","PLZ":"8002","Tel":"044 201 24 27","Name":"Waffenplatzstrasse"}}
,{"type":"Feature","geometry":{"type":"Point","coordinates":[8.51383950827203,47.3320734190539]},"properties":{"Ort":"Zürich","www":"http://www.stadt-zuerich.ch/content/ssd/de/index/volksschule/schulkreise_kreisschulpflegen/uto/schulen/falletsche_leimbach_schuleineheit/kindergaerten.html","Adresse":"Maneggpromenade 100","PLZ":"8041","Tel":"044 481 83 23","Name":"Maneggpromenade"}}
,{"type":"Feature","geometry":{"type":"Point","coordinates":[8.54203624353585,47.3954484920509]},"properties":{"Ort":"Zürich","www":"http://www.stadt-zuerich.ch/content/ssd/de/index/volksschule/schulkreise_kreisschulpflegen/waidberg/schulen/milchbuck_a_schuleinheit/kindergarten.html","Adresse":"Stüssistrasse 94","PLZ":"8057","Tel":"044 361 50 85","Name":"Stüssistrasse"}}
,{"type":"Feature","geometry":{"type":"Point","coordinates":[8.53644651325035,47.3958205685994]},"properties":{"Ort":"Zürich","www":"http://www.stadt-zuerich.ch/content/ssd/de/index/volksschule/schulkreise_kreisschulpflegen/waidberg/schulen/milchbuck_a_schuleinheit/kindergarten.html","Adresse":"Zeppelinstrasse 47","PLZ":"8057","Tel":"044 362 28 44","Name":"Zeppelinstrasse"}}
,{"type":"Feature","geometry":{"type":"Point","coordinates":[8.57639473629968,47.410084629687]},"properties":{"Ort":"Zürich","www":"http://www.stadt-zuerich.ch/content/ssd/de/index/volksschule/schulkreise_kreisschulpflegen/schwamendingen/schulen/auhof_schuleinheit/kindergarten.html","Adresse":"Glattstegweg 110","PLZ":"8051","Tel":"044 321 33 03","Name":"Glattstegweg"}}
,{"type":"Feature","geometry":{"type":"Point","coordinates":[8.47875353428081,47.4131859192232]},"properties":{"Ort":"Zürich","www":"http://www.stadt-zuerich.ch/content/ssd/de/index/volksschule/schulkreise_kreisschulpflegen/waidberg/schulen/ruetihof_schuleinheit/kindergarten.html","Adresse":"Giblenstrasse 60","PLZ":"8049","Tel":"044 341 87 80","Name":"Giblenstrasse 1"}}
,{"type":"Feature","geometry":{"type":"Point","coordinates":[8.57355925954641,47.3493656116658]},"properties":{"Ort":"Zürich","www":"http://www.stadt-zuerich.ch/content/ssd/de/index/volksschule/schulkreise_kreisschulpflegen/zuerichberg/schulen/balgrist_kartaus_schuleinheit/kindergarten.html","Adresse":"Im Walder 1","PLZ":"8008","Tel":"044 422 21 39","Name":"Im Walder"}}
,{"type":"Feature","geometry":{"type":"Point","coordinates":[8.56542342908457,47.3816361239401]},"properties":{"Ort":"Zürich","www":"http://www.stadt-zuerich.ch/content/ssd/de/index/volksschule/schulkreise_kreisschulpflegen/zuerichberg/schulen/fluntern_schuleinheit/kindergarten.html","Adresse":"Heubeeriweg 30","PLZ":"8044","Tel":"044 251 53 05","Name":"Heubeeribüel 1"}}
,{"type":"Feature","geometry":{"type":"Point","coordinates":[8.56173489093365,47.3564532851956]},"properties":{"Ort":"Zürich","www":"http://www.stadt-zuerich.ch/content/ssd/de/index/volksschule/schulkreise_kreisschulpflegen/zuerichberg/schulen/balgrist_kartaus_schuleinheit/kindergarten.html","Adresse":"Kartausstrasse 9","PLZ":"8008","Tel":"044 381 43 24","Name":"Kartaus"}}
,{"type":"Feature","geometry":{"type":"Point","coordinates":[8.52411143959024,47.3789201856348]},"properties":{"Ort":"Zürich","www":"http://www.stadt-zuerich.ch/content/ssd/de/index/volksschule/schulkreise_kreisschulpflegen/limmattal/schulen/aussersihl_schuleinheit/kindergarten.html","Adresse":"Hohlstrasse 86c","PLZ":"8004","Tel":"044 291 33 11","Name":"Hellmi"}}
,{"type":"Feature","geometry":{"type":"Point","coordinates":[8.5152414456681,47.3643569515776]},"properties":{"Ort":"Zürich","www":"http://www.stadt-zuerich.ch/content/ssd/de/index/volksschule/schulkreise_kreisschulpflegen/uto/schulen/buehl_schuleinheit/kindergarten.html","Adresse":"Bühlstrasse 45d","PLZ":"8055","Tel":"043 817 24 90","Name":"Talwiesen I"}}
,{"type":"Feature","geometry":{"type":"Point","coordinates":[8.54925941337264,47.4167629602014]},"properties":{"Ort":"Zürich","www":"http://www.stadt-zuerich.ch/content/ssd/de/index/volksschule/schulkreise_kreisschulpflegen/glattal/schulen/buhn_schuleinheit/kindergaerten.html","Adresse":"Kosakenweg 4","PLZ":"8052","Tel":"044 302 69 53","Name":"Kosaken II"}}
,{"type":"Feature","geometry":{"type":"Point","coordinates":[8.51411050314788,47.4231406728666]},"properties":{"Ort":"Zürich","www":"http://www.stadt-zuerich.ch/content/ssd/de/index/volksschule/schulkreise_kreisschulpflegen/glattal/schulen/im_isengrind_schuleinheit/kindergarten.html","Adresse":"Wolfswinkel 3","PLZ":"8046","Tel":"044 372 11 37","Name":"Reckenholz II"}}
,{"type":"Feature","geometry":{"type":"Point","coordinates":[8.56717277826445,47.4044549541285]},"properties":{"Ort":"Zürich","www":"http://www.stadt-zuerich.ch/content/ssd/de/index/volksschule/schulkreise_kreisschulpflegen/schwamendingen/schulen/ahorn_schuleinheit/kindergarten.html","Adresse":"Ahornstrasse 12","PLZ":"8051","Tel":"043 299 32 91/94","Name":"Ahorn"}}
,{"type":"Feature","geometry":{"type":"Point","coordinates":[8.55560864013215,47.3572030248987]},"properties":{"Ort":"Zürich","www":"http://www.stadt-zuerich.ch/content/ssd/de/index/volksschule/schulkreise_kreisschulpflegen/zuerichberg/schulen/seefeld_muehlebach_schuleinheit/grundstufe.html","Adresse":"Seefeldstrasse 131","PLZ":"8008","Tel":"044 389 25 04","Name":"Seefeld A"}}
,{"type":"Feature","geometry":{"type":"Point","coordinates":[8.56232212780551,47.4085229260074]},"properties":{"Ort":"Zürich","www":"http://www.stadt-zuerich.ch/content/ssd/de/index/volksschule/schulkreise_kreisschulpflegen/schwamendingen/schulen/saatlen_schuleinheit/grundstufen.html","Adresse":"Tramstrasse 208","PLZ":"8050","Tel":"043 299 30 44","Name":"Saatlen Pavillon 2 / 3 / 4"}}
,{"type":"Feature","geometry":{"type":"Point","coordinates":[8.58830965456023,47.3989799084646]},"properties":{"Ort":"Zürich","www":"http://www.stadt-zuerich.ch/ssd/de/index/volksschule/schulkreise_kreisschulpflegen/schwamendingen/schulen/mattenhof_schuleinheit/grundstufe.html","Adresse":"Dübendorfstrasse 300","PLZ":"8051","Tel":"043 299 31 31","Name":"Mattenhof"}}
,{"type":"Feature","geometry":{"type":"Point","coordinates":[8.51702437485214,47.3335355329772]},"properties":{"Ort":"Zürich","www":"http://www.stadt-zuerich.ch/content/ssd/de/index/volksschule/schulkreise_kreisschulpflegen/uto/schulen/falletsche_leimbach_schuleineheit/kindergaerten.html","Adresse":"Bruderwies 55","PLZ":"8041","Tel":"044 482 16 90","Name":"Bruderwies II"}}
,{"type":"Feature","geometry":{"type":"Point","coordinates":[8.50163391196988,47.4249423009167]},"properties":{"Ort":"Zürich","www":"http://www.stadt-zuerich.ch/content/ssd/de/index/volksschule/schulkreise_kreisschulpflegen/glattal/schulen/ruggaecher_schuleinheit/kindergarten.html","Adresse":"Mühlackerstrasse 90","PLZ":"8046","Tel":"044 377 31 30","Name":"Ruggächer 5"}}
,{"type":"Feature","geometry":{"type":"Point","coordinates":[8.52612923204723,47.3478977019586]},"properties":{"Ort":"Zürich","www":"http://www.stadt-zuerich.ch/content/ssd/de/index/volksschule/schulkreise_kreisschulpflegen/uto/schulen/manegg_schuleinheit/kindergarten.html","Adresse":"Tannenrauchstrasse 10","PLZ":"8038","Tel":"044 485 60 37","Name":"Manegg II"}}
,{"type":"Feature","geometry":{"type":"Point","coordinates":[8.53521633555323,47.3701546037179]},"properties":{"Ort":"Zürich","www":"http://www.stadt-zuerich.ch/content/ssd/de/index/volksschule/schulkreise_kreisschulpflegen/zuerichberg/schulen/hirschengraben_schuleinheit/kindergarten.html","Adresse":"Basteiplatz 11","PLZ":"8001","Tel":"044 281 05 76","Name":"Schanzengraben 2"}}
,{"type":"Feature","geometry":{"type":"Point","coordinates":[8.50497707255303,47.3729457929051]},"properties":{"Ort":"Zürich","www":"http://www.stadt-zuerich.ch/content/ssd/de/index/volksschule/schulkreise_kreisschulpflegen/limmattal/schulen/im_gut_schuleinheit/kindergarten.html","Adresse":"Gutstrasse 128","PLZ":"8055","Tel":"044 491 53 30","Name":"Gut"}}
,{"type":"Feature","geometry":{"type":"Point","coordinates":[8.48176354555793,47.3897833393735]},"properties":{"Ort":"Zürich","www":"http://www.stadt-zuerich.ch/content/ssd/de/index/volksschule/schulkreise_kreisschulpflegen/letzi/schulen/schule_im_herrlig/kindergaerten.html","Adresse":"Badenerstrasse 724","PLZ":"8048","Tel":"043 311 76 04","Name":"Im Herrlig 1"}}
,{"type":"Feature","geometry":{"type":"Point","coordinates":[8.52333892103336,47.3887054695859]},"properties":{"Ort":"Zürich","www":"http://www.stadt-zuerich.ch/ssd/de/index/volksschule/schulkreise_kreisschulpflegen/limmattal/schulen/kornhaus_schuleinheit/grundstufen.html","Adresse":"Heinrichstrasse 238","PLZ":"8005","Tel":"044 272 13 88","Name":"Heinrich 238"}}
,{"type":"Feature","geometry":{"type":"Point","coordinates":[8.52551949004829,47.3852183904197]},"properties":{"Ort":"Zürich","www":"http://www.stadt-zuerich.ch/content/ssd/de/index/volksschule/schulkreise_kreisschulpflegen/limmattal/schulen/kornhaus_schuleinheit/grundstufen.html","Adresse":"Josefstrasse 169","PLZ":"8005","Tel":"044 271 29 30","Name":"Josef"}}
,{"type":"Feature","geometry":{"type":"Point","coordinates":[8.49612899785781,47.3863633659464]},"properties":{"Ort":"Zürich","www":"http://www.stadt-zuerich.ch/content/ssd/de/index/volksschule/schulkreise_kreisschulpflegen/letzi/schulen/schule_kappeli/kindergaerten.html","Adresse":"Flurstrasse 30","PLZ":"8048","Tel":"044 401 03 34","Name":"Kappeli 3"}}
,{"type":"Feature","geometry":{"type":"Point","coordinates":[8.51742788448453,47.3766160056303]},"properties":{"Ort":"Zürich","www":"http://www.stadt-zuerich.ch/content/ssd/de/index/volksschule/schulkreise_kreisschulpflegen/limmattal/schulen/sihlfeld_schuleinheit/kindergarten.html","Adresse":"Karl-Bürkli-Strasse 7","PLZ":"8004","Tel":"044 241 30 58","Name":"Lochergut"}}
,{"type":"Feature","geometry":{"type":"Point","coordinates":[8.4884317366057,47.3965261342724]},"properties":{"Ort":"Zürich","www":"http://www.stadt-zuerich.ch/content/ssd/de/index/volksschule/schulkreise_kreisschulpflegen/letzi/schulen/schule_gruenau/kindergaerten.html","Adresse":"Grünauring 30","PLZ":"8064","Tel":"043 311 72 35","Name":"Grünau 2"}}
,{"type":"Feature","geometry":{"type":"Point","coordinates":[8.50407275520342,47.3658498249272]},"properties":{"Ort":"Zürich","www":"http://www.stadt-zuerich.ch/content/ssd/de/index/volksschule/schulkreise_kreisschulpflegen/uto/schulen/kuengenmatt_schuleinheit/kindergarten.html","Adresse":"Döltschiweg 135","PLZ":"8055","Tel":"044 463 52 80","Name":"Döltschiweg I"}}
,{"type":"Feature","geometry":{"type":"Point","coordinates":[8.54710842166007,47.4059393397786]},"properties":{"Ort":"Zürich","www":"http://www.stadt-zuerich.ch/content/ssd/de/index/volksschule/schulkreise_kreisschulpflegen/glattal/schulen/gubel_schuleinheit/kindergarten.html","Adresse":"Oerlikonerstrasse 98","PLZ":"8057","Tel":"044 311 97 30","Name":"Oerlikoner"}}
,{"type":"Feature","geometry":{"type":"Point","coordinates":[8.52174053432296,47.4107313780463]},"properties":{"Ort":"Zürich","www":"http://www.stadt-zuerich.ch/content/ssd/de/index/volksschule/schulkreise_kreisschulpflegen/glattal/schulen/kaeferholz_schuleinheit/kindergarten.html","Adresse":"Althoosstrasse 31","PLZ":"8046","Tel":"044 371 63 33","Name":"Althoos I"}}
,{"type":"Feature","geometry":{"type":"Point","coordinates":[8.58384120297983,47.4054504182862]},"properties":{"Ort":"Zürich","www":"http://www.stadt-zuerich.ch/content/ssd/de/index/volksschule/schulkreise_kreisschulpflegen/schwamendingen/schulen/hirzenbach_schuleinheit/kindergarten.html","Adresse":"Am Luchsgraben 6","PLZ":"8051","Tel":"044 322 66 50","Name":"Am Luchsgraben"}}
,{"type":"Feature","geometry":{"type":"Point","coordinates":[8.58427298746514,47.3608226712936]},"properties":{"Ort":"Zürich","www":"http://www.stadt-zuerich.ch/content/ssd/de/index/volksschule/schulkreise_kreisschulpflegen/zuerichberg/schulen/looren_schuleinheit/kindergarten.html","Adresse":"Buchholzstrasse 53","PLZ":"8053","Tel":"044 422 25 45","Name":"Buchholz 1"}}
,{"type":"Feature","geometry":{"type":"Point","coordinates":[8.51069480445331,47.4193088879634]},"properties":{"Ort":"Zürich","www":"http://www.stadt-zuerich.ch/content/ssd/de/index/volksschule/schulkreise_kreisschulpflegen/glattal/schulen/riedenhalden_schuleinheit/kindergarten.html","Adresse":"Riedenhaldenstrasse 236","PLZ":"8046","Tel":"044 300 68 59","Name":"Riedenhalden I"}}
,{"type":"Feature","geometry":{"type":"Point","coordinates":[8.59610878919298,47.3612099277051]},"properties":{"Ort":"Zürich","www":"http://www.stadt-zuerich.ch/ssd/de/index/volksschule/schulkreise_kreisschulpflegen/zuerichberg/schulen/looren_schuleinheit/kindergarten.html","Adresse":"Katzenschwanzstrasse 7","PLZ":"8053","Tel":"043 499 12 88","Name":"Looren A 1"}}
,{"type":"Feature","geometry":{"type":"Point","coordinates":[8.48823399602524,47.4080304789406]},"properties":{"Ort":"Zürich","www":"http://www.stadt-zuerich.ch/content/ssd/de/index/volksschule/schulkreise_kreisschulpflegen/waidberg/schulen/puenten_riedhof_schuleinheit/kindergarten.html","Adresse":"Wildenweg 11","PLZ":"8049","Tel":"043 311 31 77","Name":"Wildenweg 1"}}
,{"type":"Feature","geometry":{"type":"Point","coordinates":[8.53246831613137,47.412280541255]},"properties":{"Ort":"Zürich","www":"http://www.stadt-zuerich.ch/content/ssd/de/index/volksschule/schulkreise_kreisschulpflegen/glattal/schulen/kuegeliloo_schuleinheit/kindergarten.html","Adresse":"Regina-Kägi-Hof 10","PLZ":"8050","Tel":"044 312 47 21","Name":"Regina-Kägi-Hof II"}}
,{"type":"Feature","geometry":{"type":"Point","coordinates":[8.50483941025812,47.3957344876755]},"properties":{"Ort":"Zürich","www":"http://www.stadt-zuerich.ch/content/ssd/de/index/volksschule/schulkreise_kreisschulpflegen/waidberg/schulen/am_wasser_schuleinheit/kindergarten.html","Adresse":"Am Wasser 55a","PLZ":"8049","Tel":"044 342 91 53","Name":"Am Wasser 63"}}
,{"type":"Feature","geometry":{"type":"Point","coordinates":[8.51295985158054,47.3575191359227]},"properties":{"Ort":"Zürich","www":"http://www.stadt-zuerich.ch/content/ssd/de/index/volksschule/schulkreise_kreisschulpflegen/uto/schulen/bachtobel_schuleinheit/kindergarten.html","Adresse":"Hegianwandweg 28","PLZ":"8045","Tel":"043 333 18 51","Name":"Hegianwandweg I"}}
,{"type":"Feature","geometry":{"type":"Point","coordinates":[8.54679546373794,47.4300058893956]},"properties":{"Ort":"Zürich","www":"http://www.stadt-zuerich.ch/content/ssd/de/index/volksschule/schulkreise_kreisschulpflegen/glattal/schulen/kolbenacker_schuleinheit/kindergarten.html","Adresse":"Eichrainstrasse 15","PLZ":"8052","Tel":"043 300 91 37","Name":"Eichrain"}}
,{"type":"Feature","geometry":{"type":"Point","coordinates":[8.48719519168631,47.396357276904]},"properties":{"Ort":"Zürich","www":"http://www.stadt-zuerich.ch/content/ssd/de/index/volksschule/schulkreise_kreisschulpflegen/letzi/schulen/schule_gruenau/kindergaerten.html","Adresse":"Grünauring 31","PLZ":"8064","Tel":"044 431 09 63","Name":"Grünau 4"}}
,{"type":"Feature","geometry":{"type":"Point","coordinates":[8.53216950492749,47.4074784387938]},"properties":{"Ort":"Zürich","www":"http://www.stadt-zuerich.ch/content/ssd/de/index/volksschule/schulkreise_kreisschulpflegen/glattal/schulen/kuegeliloo_schuleinheit/kindergarten.html","Adresse":"Künzlistrasse 46","PLZ":"8057","Tel":"044 362 29 54","Name":"Künzli"}}
,{"type":"Feature","geometry":{"type":"Point","coordinates":[8.50163391196988,47.4249423009167]},"properties":{"Ort":"Zürich","www":"http://www.stadt-zuerich.ch/content/ssd/de/index/volksschule/schulkreise_kreisschulpflegen/glattal/schulen/ruggaecher_schuleinheit/kindergarten.html","Adresse":"Mühlackerstrasse 90","PLZ":"8046","Tel":"044 377 31 30","Name":"Ruggächer 2"}}
,{"type":"Feature","geometry":{"type":"Point","coordinates":[8.5227185115229,47.369122445501]},"properties":{"Ort":"Zürich","www":"http://www.stadt-zuerich.ch/content/ssd/de/index/volksschule/schulkreise_kreisschulpflegen/uto/schulen/aegerten_schuleinheit/kindergarten.html","Adresse":"Aegertenstrasse 29","PLZ":"8003","Tel":"043 268 66 14","Name":"Aegerten II"}}
,{"type":"Feature","geometry":{"type":"Point","coordinates":[8.51295985158054,47.3575191359227]},"properties":{"Ort":"Zürich","www":"http://www.stadt-zuerich.ch/content/ssd/de/index/volksschule/schulkreise_kreisschulpflegen/uto/schulen/bachtobel_schuleinheit/kindergarten.html","Adresse":"Hegianwandweg 28","PLZ":"8045","Tel":"043 333 18 52","Name":"Hegianwandweg II"}}
,{"type":"Feature","geometry":{"type":"Point","coordinates":[8.52874836906541,47.3356702259481]},"properties":{"Ort":"Zürich","www":"http://www.stadt-zuerich.ch/content/ssd/de/index/volksschule/schulkreise_kreisschulpflegen/uto/schulen/entlisberg_schuleinheit/kindergarten.html","Adresse":"Moosstrasse 74","PLZ":"8038","Tel":"044 481 83 29","Name":"Moos II"}}
,{"type":"Feature","geometry":{"type":"Point","coordinates":[8.51551491287808,47.3261844944188]},"properties":{"Ort":"Zürich","www":"http://www.stadt-zuerich.ch/ssd/de/index/volksschule/schulkreise_kreisschulpflegen/uto/schulen/sihlweid_schuleinheit/kindergarten.html","Adresse":"Sihlweidstrasse 2","PLZ":"8041","Tel":"044 481 83 03","Name":"Sihlweid II"}}
,{"type":"Feature","geometry":{"type":"Point","coordinates":[8.53929177063759,47.4020612481795]},"properties":{"Ort":"Zürich","www":"http://www.stadt-zuerich.ch/content/ssd/de/index/volksschule/schulkreise_kreisschulpflegen/waidberg/schulen/allenmoos_schuleinheit/kindergarten.html","Adresse":"Schürbungert 25","PLZ":"8057","Tel":"043 255 20 15","Name":"Allenmoos Schulhaus 2"}}
,{"type":"Feature","geometry":{"type":"Point","coordinates":[8.48823399602524,47.4080304789406]},"properties":{"Ort":"Zürich","www":"http://www.stadt-zuerich.ch/content/ssd/de/index/volksschule/schulkreise_kreisschulpflegen/waidberg/schulen/puenten_riedhof_schuleinheit/kindergarten.html","Adresse":"Wildenweg 11","PLZ":"8049","Tel":"043 311 31 77","Name":"Wildenweg 2"}}
,{"type":"Feature","geometry":{"type":"Point","coordinates":[8.54417770693761,47.3909985372887]},"properties":{"Ort":"Zürich","www":"http://www.stadt-zuerich.ch/content/ssd/de/index/volksschule/schulkreise_kreisschulpflegen/waidberg/schulen/roesli_weinberg_turner_schuleinheit/kindergarten.html","Adresse":"Zanggerweg 40","PLZ":"8006","Tel":"044 363 20 91","Name":"Zanggerweg 2"}}
,{"type":"Feature","geometry":{"type":"Point","coordinates":[8.54289193107391,47.3888331148229]},"properties":{"Ort":"Zürich","www":"http://www.stadt-zuerich.ch/content/ssd/de/index/volksschule/schulkreise_kreisschulpflegen/waidberg/schulen/roesli_weinberg_turner_schuleinheit/kindergarten.html","Adresse":"Riedtlistrasse 41","PLZ":"8006","Tel":"044 368 82 13","Name":"Riedtli Schulhaus"}}
,{"type":"Feature","geometry":{"type":"Point","coordinates":[8.50163391196988,47.4249423009167]},"properties":{"Ort":"Zürich","www":"http://www.stadt-zuerich.ch/content/ssd/de/index/volksschule/schulkreise_kreisschulpflegen/glattal/schulen/ruggaecher_schuleinheit/kindergarten.html","Adresse":"Mühlackerstrasse 90","PLZ":"8046","Tel":"044 377 31 30","Name":"Ruggächer 3"}}
,{"type":"Feature","geometry":{"type":"Point","coordinates":[8.53002763221977,47.3861671563987]},"properties":{"Ort":"Zürich","www":"http://www.stadt-zuerich.ch/content/ssd/de/index/volksschule/schulkreise_kreisschulpflegen/limmattal/schulen/kornhaus_schuleinheit/grundstufen.html","Adresse":"Limmatstrasse 176","PLZ":"8005","Tel":"044 274 37 10","Name":"Kornhaus A, B"}}
,{"type":"Feature","geometry":{"type":"Point","coordinates":[8.53434701156447,47.38353218977]},"properties":{"Ort":"Zürich","www":"http://www.stadt-zuerich.ch/content/ssd/de/index/volksschule/schulkreise_kreisschulpflegen/limmattal/schulen/limmat_b_c_schuleinheit/kindergarten.html","Adresse":"Ausstellungsstrasse 81","PLZ":"8005","Tel":"043 204 00 50","Name":"Limmat B"}}
,{"type":"Feature","geometry":{"type":"Point","coordinates":[8.55560864013215,47.3572030248987]},"properties":{"Ort":"Zürich","www":"http://www.stadt-zuerich.ch/content/ssd/de/index/volksschule/schulkreise_kreisschulpflegen/zuerichberg/schulen/seefeld_muehlebach_schuleinheit/grundstufe.html","Adresse":"Seefeldstrasse 131","PLZ":"8008","Tel":"044 389 25 06","Name":"Seefeld C"}}
,{"type":"Feature","geometry":{"type":"Point","coordinates":[8.55375399688502,47.3626033707178]},"properties":{"Ort":"Zürich","www":"http://www.stadt-zuerich.ch/content/ssd/de/index/volksschule/schulkreise_kreisschulpflegen/zuerichberg/schulen/seefeld_muehlebach_schuleinheit/grundstufe.html","Adresse":"Mühlebachstrasse 71","PLZ":"8008","Tel":"043 443 00 28","Name":"Mühlebach D"}}
,{"type":"Feature","geometry":{"type":"Point","coordinates":[8.55375399688502,47.3626033707178]},"properties":{"Ort":"Zürich","www":"http://www.stadt-zuerich.ch/content/ssd/de/index/volksschule/schulkreise_kreisschulpflegen/zuerichberg/schulen/seefeld_muehlebach_schuleinheit/grundstufe.html","Adresse":"Mühlebachstrasse 71","PLZ":"8008","Tel":"043 443 00 28","Name":"Mühlebach E"}}
,{"type":"Feature","geometry":{"type":"Point","coordinates":[8.51006519736239,47.3814005401024]},"properties":{"Ort":"Zürich","www":"http://www.stadt-zuerich.ch/content/ssd/de/index/volksschule/schulkreise_kreisschulpflegen/limmattal/schulen/hardau_schuleinheit/kindergarten.html","Adresse":"Bullingerstrasse 73","PLZ":"8004","Tel":"044 491 59 57","Name":"Hardau Zentrum"}}
,{"type":"Feature","geometry":{"type":"Point","coordinates":[8.479574406212,47.3839274451792]},"properties":{"Ort":"Zürich","www":"http://www.stadt-zuerich.ch/content/ssd/de/index/volksschule/schulkreise_kreisschulpflegen/letzi/schulen/schule_buchlern/kindergaerten.html","Adresse":"Buchlernstrasse 30","PLZ":"8048","Tel":"044 431 26 78","Name":"Buchlernstrasse 30"}}
,{"type":"Feature","geometry":{"type":"Point","coordinates":[8.4884317366057,47.3965261342724]},"properties":{"Ort":"Zürich","www":"http://www.stadt-zuerich.ch/content/ssd/de/index/volksschule/schulkreise_kreisschulpflegen/letzi/schulen/schule_gruenau/kindergaerten.html","Adresse":"Grünauring 30","PLZ":"8064","Tel":"043 311 72 35","Name":"Grünau 1"}}
,{"type":"Feature","geometry":{"type":"Point","coordinates":[8.50973902136598,47.3542322748981]},"properties":{"Ort":"Zürich","www":"http://www.stadt-zuerich.ch/content/ssd/de/index/volksschule/schulkreise_kreisschulpflegen/uto/schulen/friesenberg_schuleinheit/kindergarten.html","Adresse":"Frauentalweg 39","PLZ":"8045","Tel":"044 462 51 24","Name":"Frauentalweg I"}}
,{"type":"Feature","geometry":{"type":"Point","coordinates":[8.51466833512002,47.3793152791731]},"properties":{"Ort":"Zürich","www":"http://www.stadt-zuerich.ch/content/ssd/de/index/volksschule/schulkreise_kreisschulpflegen/limmattal/schulen/sihlfeld_schuleinheit/kindergarten.html","Adresse":"Bullingerstrasse 5","PLZ":"8004","Tel":"044 242 87 21","Name":"Bullingerhof 1"}}
,{"type":"Feature","geometry":{"type":"Point","coordinates":[8.51980216259939,47.3801580337969]},"properties":{"Ort":"Zürich","www":"http://www.stadt-zuerich.ch/content/ssd/de/index/volksschule/schulkreise_kreisschulpflegen/limmattal/schulen/sihlfeld_schuleinheit/kindergarten.html","Adresse":"Erismannhof 2","PLZ":"8004","Tel":"044 291 00 01","Name":"Erismannhof"}}
,{"type":"Feature","geometry":{"type":"Point","coordinates":[8.4709490927719,47.3902584541153]},"properties":{"Ort":"Zürich","www":"http://www.stadt-zuerich.ch/content/ssd/de/index/volksschule/schulkreise_kreisschulpflegen/letzi/schulen/schule_loogarten/kindergaerten.html","Adresse":"Am Suteracher 42","PLZ":"8048","Tel":"044 432 44 60","Name":"Am Suteracher"}}
,{"type":"Feature","geometry":{"type":"Point","coordinates":[8.49702681532843,47.3802535009985]},"properties":{"Ort":"Zürich","www":"http://www.stadt-zuerich.ch/content/ssd/de/index/volksschule/schulkreise_kreisschulpflegen/letzi/schulen/schule_utogrund/kindergaerten.html","Adresse":"Dennlerstrasse 27","PLZ":"8047","Tel":"044 401 08 86","Name":"Utogrund 2"}}
,{"type":"Feature","geometry":{"type":"Point","coordinates":[8.48664569323868,47.3823914170637]},"properties":{"Ort":"Zürich","www":"http://www.stadt-zuerich.ch/content/ssd/de/index/volksschule/schulkreise_kreisschulpflegen/letzi/schulen/schule_altstetterstrasse/kindergaerten.html","Adresse":"Rautistrasse 99","PLZ":"8048","Tel":"044 431 14 04","Name":"Rautistrasse 99"}}
,{"type":"Feature","geometry":{"type":"Point","coordinates":[8.5097413887466,47.3692772684958]},"properties":{"Ort":"Zürich","www":"http://www.stadt-zuerich.ch/content/ssd/de/index/volksschule/schulkreise_kreisschulpflegen/uto/schulen/kuengenmatt_schuleinheit/kindergarten.html","Adresse":"Höfliweg 14","PLZ":"8055","Tel":"044 461 38 71","Name":"Höfliweg I"}}
,{"type":"Feature","geometry":{"type":"Point","coordinates":[8.53256560942353,47.3333166809422]},"properties":{"Ort":"Zürich","www":"http://www.stadt-zuerich.ch/content/ssd/de/index/volksschule/schulkreise_kreisschulpflegen/uto/schulen/neubuehl_schuleinheit/kindergarten.html","Adresse":"Erligatterweg 33","PLZ":"8038","Tel":"043 399 75 27","Name":"Neubühl"}}
,{"type":"Feature","geometry":{"type":"Point","coordinates":[8.50380774910189,47.4193703262159]},"properties":{"Ort":"Zürich","www":"http://www.stadt-zuerich.ch/content/ssd/de/index/volksschule/schulkreise_kreisschulpflegen/glattal/schulen/holderbach_schuleinheit/kindergarten.html","Adresse":"Wehntalerstrasse 563","PLZ":"8046","Tel":"044 377 80 47","Name":"Holderbach I"}}
,{"type":"Feature","geometry":{"type":"Point","coordinates":[8.5356003995717,47.4097737370225]},"properties":{"Ort":"Zürich","www":"http://www.stadt-zuerich.ch/content/ssd/de/index/volksschule/schulkreise_kreisschulpflegen/glattal/schulen/kuegeliloo_schuleinheit/kindergarten.html","Adresse":"Regensbergstrasse 201","PLZ":"8050","Tel":"044 312 24 79","Name":"Holunderhof I"}}
,{"type":"Feature","geometry":{"type":"Point","coordinates":[8.53318393056279,47.3935152057774]},"properties":{"Ort":"Zürich","www":"http://www.stadt-zuerich.ch/content/ssd/de/index/volksschule/schulkreise_kreisschulpflegen/waidberg/schulen/milchbuck_a_schuleinheit/kindergarten.html","Adresse":"Rütschistrasse 3","PLZ":"8037","Tel":"044 363 60 64","Name":"Rütschistrasse"}}
,{"type":"Feature","geometry":{"type":"Point","coordinates":[8.54379920773546,47.3882539729545]},"properties":{"Ort":"Zürich","www":"http://www.stadt-zuerich.ch/content/ssd/de/index/volksschule/schulkreise_kreisschulpflegen/waidberg/schulen/roesli_weinberg_turner_schuleinheit/kindergarten.html","Adresse":"Scheuchzerstrasse 85","PLZ":"8006","Tel":"044 364 07 01","Name":"Scheuchzerstrasse 1"}}
,{"type":"Feature","geometry":{"type":"Point","coordinates":[8.58073393790793,47.4072049961148]},"properties":{"Ort":"Zürich","www":"http://www.stadt-zuerich.ch/content/ssd/de/index/volksschule/schulkreise_kreisschulpflegen/schwamendingen/schulen/luchswiesen_schuleinheit/kindergarten.html","Adresse":"Luegislandstrasse 545","PLZ":"8051","Tel":"044 321 73 00","Name":"Luegislandstrasse"}}
,{"type":"Feature","geometry":{"type":"Point","coordinates":[8.5206975375061,47.3942056998515]},"properties":{"Ort":"Zürich","www":"http://www.stadt-zuerich.ch/ssd/de/index/volksschule/schulkreise_kreisschulpflegen/waidberg/schulen/waidhalde_schuleinheit/kindergarten.html","Adresse":"Hönggerstrasse 89","PLZ":"8037","Tel":"044 271 47 31","Name":"Hönggerstrasse"}}
,{"type":"Feature","geometry":{"type":"Point","coordinates":[8.55872895296543,47.366568226688]},"properties":{"Ort":"Zürich","www":"http://www.stadt-zuerich.ch/content/ssd/de/index/volksschule/schulkreise_kreisschulpflegen/zuerichberg/schulen/illgen_schuleinheit/kindergarten.html","Adresse":"Freiestrasse 100","PLZ":"8032","Tel":"044 383 42 51","Name":"Freiestrasse"}}
,{"type":"Feature","geometry":{"type":"Point","coordinates":[8.55802516266158,47.3542735670057]},"properties":{"Ort":"Zürich","www":"http://www.stadt-zuerich.ch/content/ssd/de/index/volksschule/schulkreise_kreisschulpflegen/zuerichberg/schulen/balgrist_kartaus_schuleinheit/kindergarten.html","Adresse":"Seefeldstrasse 189","PLZ":"8008","Tel":"044 382 19 50","Name":"Tiefenbrunnen"}}
,{"type":"Feature","geometry":{"type":"Point","coordinates":[8.52619404501205,47.3949499641506]},"properties":{"Ort":"Zürich","www":"http://www.stadt-zuerich.ch/content/ssd/de/index/volksschule/schulkreise_kreisschulpflegen/waidberg/schulen/nordstrasse_schuleinheit/kindergarten.html","Adresse":"Nordstrasse 270","PLZ":"8037","Tel":"044 271 50 39","Name":"Nordstrasse"}}
,{"type":"Feature","geometry":{"type":"Point","coordinates":[8.53194218781854,47.4163341208067]},"properties":{"Ort":"Zürich","www":"http://www.stadt-zuerich.ch/content/ssd/de/index/volksschule/schulkreise_kreisschulpflegen/glattal/schulen/huerstholz_schuleinheit/kindergarten.html","Adresse":"Neunbrunnenstrasse 150","PLZ":"8046","Tel":"044 312 47 46","Name":"Neunbrunnen Alpha"}}
,{"type":"Feature","geometry":{"type":"Point","coordinates":[8.54978970729721,47.4278182008452]},"properties":{"Ort":"Zürich","www":"http://www.stadt-zuerich.ch/content/ssd/de/index/volksschule/schulkreise_kreisschulpflegen/glattal/schulen/kolbenacker_schuleinheit/kindergarten.html","Adresse":"Stiglenstrasse 40","PLZ":"8052","Tel":"044 302 48 37","Name":"Stiglen"}}
,{"type":"Feature","geometry":{"type":"Point","coordinates":[8.5869915425919,47.4044349804539]},"properties":{"Ort":"Zürich","www":"http://www.stadt-zuerich.ch/content/ssd/de/index/volksschule/schulkreise_kreisschulpflegen/schwamendingen/schulen/hirzenbach_schuleinheit/kindergarten.html","Adresse":"Luchswiesenstrasse 186","PLZ":"8051","Tel":"043 299 40 29","Name":"Hirzenbach"}}
,{"type":"Feature","geometry":{"type":"Point","coordinates":[8.50470591221955,47.371794130232]},"properties":{"Ort":"Zürich","www":"","Adresse":"Gutstrasse 107","PLZ":"8055","Tel":"044 405 64 58","Name":"Gut 1"}}
,{"type":"Feature","geometry":{"type":"Point","coordinates":[8.51069480445331,47.4193088879634]},"properties":{"Ort":"Zürich","www":"http://www.stadt-zuerich.ch/content/ssd/de/index/volksschule/schulkreise_kreisschulpflegen/glattal/schulen/riedenhalden_schuleinheit/kindergarten.html","Adresse":"Riedenhaldenstrasse 236","PLZ":"8046","Tel":"044 300 68 59","Name":"Riedenhalden II"}}
,{"type":"Feature","geometry":{"type":"Point","coordinates":[8.50470591221955,47.371794130232]},"properties":{"Ort":"Zürich","www":"http://www.stadt-zuerich.ch/content/ssd/de/index/volksschule/schulkreise_kreisschulpflegen/limmattal/schulen/im_gut_schuleinheit/kindergarten.html","Adresse":"Gutstrasse 107","PLZ":"8055","Tel":"044 405 64 59","Name":"Gut 2"}}
,{"type":"Feature","geometry":{"type":"Point","coordinates":[8.48654292398065,47.3761292743641]},"properties":{"Ort":"Zürich","www":"http://www.stadt-zuerich.ch/content/ssd/de/index/volksschule/schulkreise_kreisschulpflegen/letzi/schulen/schule_untermoos/kindergaerten.html","Adresse":"Albisriederstrasse 346","PLZ":"8047","Tel":"044 401 10 01","Name":"In der Ey 4"}}
,{"type":"Feature","geometry":{"type":"Point","coordinates":[8.53521633555323,47.3701546037179]},"properties":{"Ort":"Zürich","www":"http://www.stadt-zuerich.ch/content/ssd/de/index/volksschule/schulkreise_kreisschulpflegen/zuerichberg/schulen/hirschengraben_schuleinheit/kindergarten.html","Adresse":"Basteiplatz 11","PLZ":"8001","Tel":"044 281 05 76","Name":"Schanzengraben 1"}}
,{"type":"Feature","geometry":{"type":"Point","coordinates":[8.54557341684218,47.4075507467013]},"properties":{"Ort":"Zürich","www":"http://www.stadt-zuerich.ch/content/ssd/de/index/volksschule/schulkreise_kreisschulpflegen/glattal/schulen/gubel_schuleinheit/kindergarten.html","Adresse":"Gubelstrasse 9","PLZ":"8050","Tel":"044 312 07 03","Name":"Halde C2"}}
,{"type":"Feature","geometry":{"type":"Point","coordinates":[8.53434701156447,47.38353218977]},"properties":{"Ort":"Zürich","www":"http://www.stadt-zuerich.ch/content/ssd/de/index/volksschule/schulkreise_kreisschulpflegen/limmattal/schulen/limmat_b_c_schuleinheit/kindergarten.html","Adresse":"Ausstellungsstrasse 81","PLZ":"8005","Tel":"043 204 00 60","Name":"Limmat C"}}
,{"type":"Feature","geometry":{"type":"Point","coordinates":[8.52811136464018,47.367281762143]},"properties":{"Ort":"Zürich","www":"http://www.stadt-zuerich.ch/content/ssd/de/index/volksschule/schulkreise_kreisschulpflegen/uto/schulen/gabler_schuleinheit/kindergarten.html","Adresse":"Brandschenkestrasse 70","PLZ":"8002","Tel":"079 582 31 64","Name":"Brandschenke"}}
,{"type":"Feature","geometry":{"type":"Point","coordinates":[8.52708514125012,47.3970307263431]},"properties":{"Ort":"Zürich","www":"","Adresse":"Weihersteig 7","PLZ":"8037","Tel":"044 300 51 27","Name":"Waidhalde Schulhaus"}}
,{"type":"Feature","geometry":{"type":"Point","coordinates":[8.50292444381452,47.3797143359508]},"properties":{"Ort":"Zürich","www":"http://www.stadt-zuerich.ch/content/ssd/de/index/volksschule/schulkreise_kreisschulpflegen/limmattal/schulen/aemtler_a_schuleinheit/kindergarten.html","Adresse":"Letzigraben 25a","PLZ":"8003","Tel":"044 491 53 80","Name":"Letzigraben 1 und 2"}}
,{"type":"Feature","geometry":{"type":"Point","coordinates":[8.49233786521283,47.3728070342874]},"properties":{"Ort":"Zürich","www":"http://www.stadt-zuerich.ch/content/ssd/de/index/volksschule/schulkreise_kreisschulpflegen/letzi/schulen/schule_altweg/kindergaerten.html","Adresse":"Letzigraben 200","PLZ":"8047","Tel":"043 336 10 74","Name":"Altweg 1"}}
,{"type":"Feature","geometry":{"type":"Point","coordinates":[8.49233786521283,47.3728070342874]},"properties":{"Ort":"Zürich","www":"http://www.stadt-zuerich.ch/content/ssd/de/index/volksschule/schulkreise_kreisschulpflegen/letzi/schulen/schule_altweg/kindergaerten.html","Adresse":"Letzigraben 200","PLZ":"8047","Tel":"043 336 10 75","Name":"Altweg 2"}}
,{"type":"Feature","geometry":{"type":"Point","coordinates":[8.51030407958012,47.3829088786974]},"properties":{"Ort":"Zürich","www":"http://www.stadt-zuerich.ch/content/ssd/de/index/volksschule/schulkreise_kreisschulpflegen/limmattal/schulen/hardau_schuleinheit/kindergarten.html","Adresse":"Eichbühlstrasse 39","PLZ":"8004","Tel":"044 493 30 02","Name":"Eichbühl"}}
,{"type":"Feature","geometry":{"type":"Point","coordinates":[8.52549649130698,47.3789263345069]},"properties":{"Ort":"Zürich","www":"http://www.stadt-zuerich.ch/content/ssd/de/index/volksschule/schulkreise_kreisschulpflegen/limmattal/schulen/aussersihl_schuleinheit/kindergarten.html","Adresse":"Brauerstrasse 66","PLZ":"8004","Tel":"Br. 1: 044 241 23 86","Name":"Brauer 1, 2"}}
,{"type":"Feature","geometry":{"type":"Point","coordinates":[8.52631592182654,47.3867016823605]},"properties":{"Ort":"Zürich","www":"http://www.stadt-zuerich.ch/ssd/de/index/volksschule/schulkreise_kreisschulpflegen/limmattal/schulen/kornhaus_schuleinheit/grundstufen.html","Adresse":"Heinrichstrasse 143","PLZ":"8005","Tel":"044 271 29 77","Name":"Heinrich 143"}}
,{"type":"Feature","geometry":{"type":"Point","coordinates":[8.5159981746545,47.358931423377]},"properties":{"Ort":"Zürich","www":"http://www.stadt-zuerich.ch/content/ssd/de/index/volksschule/schulkreise_kreisschulpflegen/uto/schulen/bachtobel_schuleinheit/kindergarten.html","Adresse":"Uetlibergstrasse 174","PLZ":"8045","Tel":"044 463 56 15","Name":"Laubegg"}}
,{"type":"Feature","geometry":{"type":"Point","coordinates":[8.49114021325536,47.3876734967339]},"properties":{"Ort":"Zürich","www":"http://www.stadt-zuerich.ch/content/ssd/de/index/volksschule/schulkreise_kreisschulpflegen/letzi/schulen/schule_kappeli/kindergaerten.html","Adresse":"Luggwegstrasse 27","PLZ":"8048","Tel":"044 432 61 45","Name":"Kappeli 1"}}
,{"type":"Feature","geometry":{"type":"Point","coordinates":[8.50494157306831,47.3586291795318]},"properties":{"Ort":"Zürich","www":"http://www.stadt-zuerich.ch/content/ssd/de/index/volksschule/schulkreise_kreisschulpflegen/uto/schulen/friesenberg_schuleinheit/kindergarten.html","Adresse":"Im Rossweidli 33","PLZ":"8045","Tel":"044 463 57 04","Name":"Rossweidli I"}}
,{"type":"Feature","geometry":{"type":"Point","coordinates":[8.5181317965089,47.3777623671103]},"properties":{"Ort":"Zürich","www":"http://www.stadt-zuerich.ch/content/ssd/de/index/volksschule/schulkreise_kreisschulpflegen/limmattal/schulen/sihlfeld_schuleinheit/kindergarten.html","Adresse":"Kanzleistrasse 161","PLZ":"8004","Tel":"044 241 70 76","Name":"Kanzlei ABZ"}}
,{"type":"Feature","geometry":{"type":"Point","coordinates":[8.52662399217525,47.3401101119736]},"properties":{"Ort":"Zürich","www":"http://www.stadt-zuerich.ch/content/ssd/de/index/volksschule/schulkreise_kreisschulpflegen/uto/schulen/entlisberg_schuleinheit/kindergarten.html","Adresse":"Farenweg 9","PLZ":"8038","Tel":"044 481 81 10","Name":"Farenweg I"}}
,{"type":"Feature","geometry":{"type":"Point","coordinates":[8.49632975865208,47.3828879554627]},"properties":{"Ort":"Zürich","www":"http://www.stadt-zuerich.ch/content/ssd/de/index/volksschule/schulkreise_kreisschulpflegen/letzi/schulen/schule_utogrund/kindergaerten.html","Adresse":"Flüelastrasse 13","PLZ":"8048","Tel":"044 401 30 39","Name":"Flüelastrasse"}}
,{"type":"Feature","geometry":{"type":"Point","coordinates":[8.54775332903744,47.4231464238199]},"properties":{"Ort":"Zürich","www":"http://www.stadt-zuerich.ch/content/ssd/de/index/volksschule/schulkreise_kreisschulpflegen/glattal/schulen/buhn_schuleinheit/kindergaerten.html","Adresse":"Am Katzenbach 5","PLZ":"8052","Tel":"044 301 05 72","Name":"Am Katzenbach"}}
,{"type":"Feature","geometry":{"type":"Point","coordinates":[8.4880430528026,47.4012884434903]},"properties":{"Ort":"Zürich","www":"http://www.stadt-zuerich.ch/content/ssd/de/index/volksschule/schulkreise_kreisschulpflegen/waidberg/schulen/puenten_riedhof_schuleinheit/kindergarten.html","Adresse":"Winzerhalde 62a","PLZ":"8049","Tel":"044 341 38 78","Name":"Winzerhalde"}}
,{"type":"Feature","geometry":{"type":"Point","coordinates":[8.5160023876172,47.3287100531735]},"properties":{"Ort":"Zürich","www":"http://www.stadt-zuerich.ch/content/ssd/de/index/volksschule/schulkreise_kreisschulpflegen/uto/schulen/falletsche_leimbach_schuleineheit/kindergaerten.html","Adresse":"Hüslibachstrasse 78","PLZ":"8041","Tel":"044 481 83 22","Name":"Hüslibach"}}
,{"type":"Feature","geometry":{"type":"Point","coordinates":[8.54557341684218,47.4075507467013]},"properties":{"Ort":"Zürich","www":"http://www.stadt-zuerich.ch/content/ssd/de/index/volksschule/schulkreise_kreisschulpflegen/glattal/schulen/gubel_schuleinheit/kindergarten.html","Adresse":"Gubelstrasse 9","PLZ":"8050","Tel":"044 311 56 40","Name":"Halde C1"}}
,{"type":"Feature","geometry":{"type":"Point","coordinates":[8.49981900650817,47.4192578689445]},"properties":{"Ort":"Zürich","www":"http://www.stadt-zuerich.ch/content/ssd/de/index/volksschule/schulkreise_kreisschulpflegen/glattal/schulen/holderbach_schuleinheit/kindergarten.html","Adresse":"Hungerbergstrasse 45","PLZ":"8046","Tel":"044 371 12 30","Name":"Hungerberg"}}
,{"type":"Feature","geometry":{"type":"Point","coordinates":[8.56216560194754,47.4046439376176]},"properties":{"Ort":"Zürich","www":"http://www.stadt-zuerich.ch/content/ssd/de/index/volksschule/schulkreise_kreisschulpflegen/schwamendingen/schulen/ahorn_schuleinheit/kindergarten.html","Adresse":"Tulpenweg 18","PLZ":"8051","Tel":"044 321 53 57","Name":"Tulpenweg"}}
,{"type":"Feature","geometry":{"type":"Point","coordinates":[8.57231938248253,47.4068901269593]},"properties":{"Ort":"Zürich","www":"http://www.stadt-zuerich.ch/content/ssd/de/index/volksschule/schulkreise_kreisschulpflegen/schwamendingen/schulen/auhof_schuleinheit/kindergarten.html","Adresse":"Herzogenmühlestrasse 41","PLZ":"8051","Tel":"044 413 00 12/14","Name":"Auhof"}}
,{"type":"Feature","geometry":{"type":"Point","coordinates":[8.51175529153584,47.4225369007461]},"properties":{"Ort":"Zürich","www":"http://www.stadt-zuerich.ch/content/ssd/de/index/volksschule/schulkreise_kreisschulpflegen/glattal/schulen/im_isengrind_schuleinheit/kindergarten.html","Adresse":"Im Isengrind 16","PLZ":"8046","Tel":"044 371 61 71","Name":"Isengrind I"}}
,{"type":"Feature","geometry":{"type":"Point","coordinates":[8.54853537490654,47.4266884415571]},"properties":{"Ort":"Zürich","www":"http://www.stadt-zuerich.ch/content/ssd/de/index/volksschule/schulkreise_kreisschulpflegen/glattal/schulen/kolbenacker_schuleinheit/kindergarten.html","Adresse":"Kolbenacker 11","PLZ":"8052","Tel":"044 302 53 08","Name":"Frohbühl I"}}
,{"type":"Feature","geometry":{"type":"Point","coordinates":[8.55108550452372,47.4254855515143]},"properties":{"Ort":"Zürich","www":"http://www.stadt-zuerich.ch/content/ssd/de/index/volksschule/schulkreise_kreisschulpflegen/glattal/schulen/kolbenacker_schuleinheit/kindergarten.html","Adresse":"Sperletweg 60","PLZ":"8052","Tel":"044 301 13 48","Name":"Kolbenacker"}}
,{"type":"Feature","geometry":{"type":"Point","coordinates":[8.5295637655392,47.4105064984472]},"properties":{"Ort":"Zürich","www":"http://www.stadt-zuerich.ch/content/ssd/de/index/volksschule/schulkreise_kreisschulpflegen/glattal/schulen/kuegeliloo_schuleinheit/kindergarten.html","Adresse":"Maienstrasse 21","PLZ":"8050","Tel":"044 312 10 76","Name":"Kügeliloo"}}
,{"type":"Feature","geometry":{"type":"Point","coordinates":[8.49688862499269,47.4018614480985]},"properties":{"Ort":"Zürich","www":"http://www.stadt-zuerich.ch/content/ssd/de/index/volksschule/schulkreise_kreisschulpflegen/waidberg/schulen/vogtsrain_schuleinheit/kindergarten.html","Adresse":"Am Wettingertobel 36","PLZ":"8049","Tel":"044 341 54 72","Name":"Am Wettingertobel"}}
,{"type":"Feature","geometry":{"type":"Point","coordinates":[8.56554769357976,47.3619122715142]},"properties":{"Ort":"Zürich","www":"http://www.stadt-zuerich.ch/content/ssd/de/index/volksschule/schulkreise_kreisschulpflegen/zuerichberg/schulen/hirslanden_schuleinheit/kindergarten.html","Adresse":"Hofackerstrasse 45","PLZ":"8032","Tel":"043 488 55 51","Name":"Hofacker 1"}}
,{"type":"Feature","geometry":{"type":"Point","coordinates":[8.51657988813805,47.3740070103611]},"properties":{"Ort":"Zürich","www":"http://www.stadt-zuerich.ch/ssd/de/index/volksschule/schulkreise_kreisschulpflegen/limmattal/schulen/zurlinden_schuleinheit/kindergartenhaus.html","Adresse":"Zentralstrasse 105","PLZ":"8003","Tel":"043 960 70 40","Name":"Wiedikon 1"}}
,{"type":"Feature","geometry":{"type":"Point","coordinates":[8.48718776933317,47.3740365723241]},"properties":{"Ort":"Zürich","www":"http://www.stadt-zuerich.ch/content/ssd/de/index/volksschule/schulkreise_kreisschulpflegen/letzi/schulen/schule_in_der_ey/kindergaerten.html","Adresse":"In der Wässeri 11","PLZ":"8047","Tel":"044 491 51 01","Name":"In der Ey 3"}}
,{"type":"Feature","geometry":{"type":"Point","coordinates":[8.57851107478615,47.400450760513]},"properties":{"Ort":"Zürich","www":"http://www.stadt-zuerich.ch/content/ssd/de/index/volksschule/schulkreise_kreisschulpflegen/schwamendingen/schulen/probstei_schuleinheit/kindergarten.html","Adresse":"Probsteistrasse 18","PLZ":"8051","Tel":"044 322 29 32","Name":"Probstei"}}
,{"type":"Feature","geometry":{"type":"Point","coordinates":[8.58427298746514,47.3608226712936]},