{"name":"Picknickplatz","type":"FeatureCollection"
,"features":[
{"type":"Feature","geometry":{"type":"Point","coordinates":[8.57371884459386,47.3987491157534]},"properties":{"Infrastruktur":"1 Brunnen, 3 Abfalleimer, 3 Feuerplätze, 4 Sitzbänke, 4 Tische","Kontakt":"GSZ Waldrevier Nord, www.stadt-zuerich.ch/gsz, 044 251 89 47","Name":"Ziegelhütte","Anlageelemente":"Spielplatz, Spielwiese"}}
,{"type":"Feature","geometry":{"type":"Point","coordinates":[8.57424928650249,47.3979068684314]},"properties":{"Infrastruktur":"1 Brunnen, 2 Abfalleimer, 3 Feuerplätze, 4 Sitzbänke, 4 Tische","Kontakt":"GSZ Waldrevier Nord, www.stadt-zuerich.ch/gsz, 044 251 89 47","Name":"Schlachtendenkmal","Anlageelemente":""}}
,{"type":"Feature","geometry":{"type":"Point","coordinates":[8.57901301350762,47.3941766903903]},"properties":{"Infrastruktur":"1 Feuerplatz, 1 Sitzbank, 1 Tisch","Kontakt":"GSZ Waldrevier Nord, www.stadt-zuerich.ch/gsz, 044 251 89 47","Name":"Weibelacker","Anlageelemente":""}}
,{"type":"Feature","geometry":{"type":"Point","coordinates":[8.57110153617958,47.3849091883313]},"properties":{"Infrastruktur":"1 Feuerplatz, 1 Tisch, 7 Sitzbänke","Kontakt":"GSZ Waldrevier Nord, www.stadt-zuerich.ch/gsz, 044 251 89 47","Name":"Hochwacht","Anlageelemente":"Aussicht"}}
,{"type":"Feature","geometry":{"type":"Point","coordinates":[8.57014134132872,47.3835409965625]},"properties":{"Infrastruktur":"1 Brunnen, 1 Feuerplatz, 1 Tisch, 2 Sitzbänke","Kontakt":"GSZ Waldrevier Nord, www.stadt-zuerich.ch/gsz, 044 251 89 47","Name":"Reservoir Batterie","Anlageelemente":""}}
,{"type":"Feature","geometry":{"type":"Point","coordinates":[8.56825456542298,47.382394270108]},"properties":{"Infrastruktur":"2 Feuerplätze, 7 Sitzbänke","Kontakt":"GSZ Waldrevier Nord, www.stadt-zuerich.ch/gsz, 044 251 89 47","Name":"Orelli-Bateriestrasse","Anlageelemente":""}}
,{"type":"Feature","geometry":{"type":"Point","coordinates":[8.56775509433882,47.3864728862572]},"properties":{"Infrastruktur":"1 Brunnen, 1 Waldhütte, 2 Abfalleimer, 3 Tische, 8 Feuerplätze, 8 Sitzbänke","Kontakt":"GSZ Waldrevier Nord, www.stadt-zuerich.ch/gsz, 044 251 89 47","Name":"Escherhöhe","Anlageelemente":"Spielwiese"}}
,{"type":"Feature","geometry":{"type":"Point","coordinates":[8.56558019183591,47.389644047833]},"properties":{"Infrastruktur":"1 Feuerplatz, 4 Sitzbänke","Kontakt":"GSZ Waldrevier Nord, www.stadt-zuerich.ch/gsz, 044 251 89 47","Name":"Chorherrenplatz","Anlageelemente":""}}
,{"type":"Feature","geometry":{"type":"Point","coordinates":[8.56196363983098,47.3894774990293]},"properties":{"Infrastruktur":"1 Abfalleimer, 2 Tische, 1 Waldhütte, 1 Waldweiher, 3 Feuerplätze, 6 Sitzbänke","Kontakt":"GSZ Waldrevier Nord, www.stadt-zuerich.ch/gsz, 044 251 89 47","Name":"Moosholzweiher","Anlageelemente":""}}
,{"type":"Feature","geometry":{"type":"Point","coordinates":[8.5671151455594,47.3907070283005]},"properties":{"Infrastruktur":"1 Abfalleimer, 1 Brunnen, 1 Feuerplatz, 2 Tische","Kontakt":"GSZ Waldrevier Nord, www.stadt-zuerich.ch/gsz, 044 251 89 47","Name":"Frauenbrünneli","Anlageelemente":""}}
,{"type":"Feature","geometry":{"type":"Point","coordinates":[8.56417728106915,47.4026053820489]},"properties":{"Infrastruktur":"1 Feuerplatz, 1 Sitzbank, 1 Tisch","Kontakt":"GSZ Waldrevier Nord, www.stadt-zuerich.ch/gsz, 044 251 89 47","Name":"Hubenstrasse","Anlageelemente":""}}
,{"type":"Feature","geometry":{"type":"Point","coordinates":[8.55689625398805,47.4000763470194]},"properties":{"Infrastruktur":"1 Feuerplatz, 2 Sitzbänke","Kontakt":"GSZ Waldrevier Nord, www.stadt-zuerich.ch/gsz, 044 251 89 47","Name":"Unterholzstrasse","Anlageelemente":""}}
,{"type":"Feature","geometry":{"type":"Point","coordinates":[8.55250058093487,47.3951914202568]},"properties":{"Infrastruktur":"1 Brunnen, 5 Abfalleimer, 8 Sitzbänke","Kontakt":"GSZ Unterhalt, www.stadt-zuerich.ch/gsz, 044 361 63 18","Name":"Alfred-Altherr-Terrasse","Anlageelemente":"Spielplatz, Spielwiese, Aussicht"}}
,{"type":"Feature","geometry":{"type":"Point","coordinates":[8.55346948871294,47.3939856208946]},"properties":{"Infrastruktur":"1 Feuerplatz, 1 Sitzbank, 1 Tisch","Kontakt":"GSZ Waldrevier Nord, www.stadt-zuerich.ch/gsz, 044 251 89 47","Name":"Letziweg","Anlageelemente":"Aussicht"}}
,{"type":"Feature","geometry":{"type":"Point","coordinates":[8.56236708995655,47.3928846503938]},"properties":{"Infrastruktur":"1 Brunnen, 1 Waldhütte, 2 Tische, 4 Abfalleimer, 4 Feuerplätze, 8 Sitzbänke","Kontakt":"GSZ Waldrevier Nord, www.stadt-zuerich.ch/gsz, 044 251 89 47","Name":"Waldhüsli","Anlageelemente":"Spielwiese"}}
,{"type":"Feature","geometry":{"type":"Point","coordinates":[8.56109484680901,47.38636427321]},"properties":{"Infrastruktur":"1 Abfalleimer, 1 Brunnen, 1 Feuerplatz, 2 Sitzbänke","Kontakt":"GSZ Waldrevier Nord, www.stadt-zuerich.ch/gsz, 044 251 89 47","Name":"Orelliweg","Anlageelemente":"Aussicht"}}
,{"type":"Feature","geometry":{"type":"Point","coordinates":[8.55297832456003,47.3924631569786]},"properties":{"Infrastruktur":"1 Abfalleimer, 1 Waldweiher, 12 Sitzbänke, 3 Feuerplätze","Kontakt":"GSZ Waldrevier Nord, www.stadt-zuerich.ch/gsz, 044 251 89 47","Name":"Resiweiher","Anlageelemente":""}}
,{"type":"Feature","geometry":{"type":"Point","coordinates":[8.51946217153136,47.4182636185256]},"properties":{"Infrastruktur":"1 Brunnen, 1 Waldhütte, 11 Feuerplätze, 15 Abfalleimer, 3 Tische, 7 Sitzbänke","Kontakt":"GSZ Unterhalt, www.stadt-zuerich.ch/gsz, 044 302 17 44","Name":"Hürstwiese, Hürstwaldwiese","Anlageelemente":"Spielwiese"}}
,{"type":"Feature","geometry":{"type":"Point","coordinates":[8.5313045901998,47.4220734194607]},"properties":{"Infrastruktur":"1 Brunnen, 2 Feuerplätze, 3 Tische, 4 Abfalleimer, 4 Sitzbänke","Kontakt":"Verschönerungsverein Zürich, www.vvzh.ch, 044 302 67 02","Name":"Spechtplatz auf der Heu","Anlageelemente":"Aussicht"}}
,{"type":"Feature","geometry":{"type":"Point","coordinates":[8.53106477666173,47.4250011506498]},"properties":{"Infrastruktur":"1 Abfalleimer, 2 Feuerplätze, 3 Sitzbänke","Kontakt":"Verschönerungsverein Zürich, www.vvzh.ch, 044 302 67 02","Name":"Schwandenholz","Anlageelemente":""}}
,{"type":"Feature","geometry":{"type":"Point","coordinates":[8.566152305737,47.3856732362264]},"properties":{"Infrastruktur":"3 Sitzbänke","Kontakt":"GSZ Waldrevier Nord, www.stadt-zuerich.ch/gsz, 044 251 89 47","Name":"Züriberg, höchster Punkt","Anlageelemente":""}}
,{"type":"Feature","geometry":{"type":"Point","coordinates":[8.55235117067968,47.3913355214653]},"properties":{"Infrastruktur":"1 Abfalleimer, 2 Feuerplätze, 2 Tische, 3 Sitzbänke","Kontakt":"GSZ Waldrevier Nord, www.stadt-zuerich.ch/gsz, 044 251 89 47","Name":"Vrenelisgärtli","Anlageelemente":"Aussicht"}}
,{"type":"Feature","geometry":{"type":"Point","coordinates":[8.60283354631976,47.3593098002863]},"properties":{"Infrastruktur":"1 Abfalleimer, 1 Feuerplatz, 4 Sitzbänke","Kontakt":"Verschönerungsverein Zürich, www.vvzh.ch, 044 821 78 53","Name":"Oetlisbergweg","Anlageelemente":"Aussicht, Spielplatz"}}
,{"type":"Feature","geometry":{"type":"Point","coordinates":[8.60309289888167,47.3584943092239]},"properties":{"Infrastruktur":"1 Abfalleimer, 1 Feuerplatz, 4 Sitzbänke","Kontakt":"Verschönerungsverein Zürich, www.vvzh.ch, 044 821 78 53","Name":"Bogenweg","Anlageelemente":"Aussicht, Spielwiese"}}
,{"type":"Feature","geometry":{"type":"Point","coordinates":[8.61910356312729,47.3555657098354]},"properties":{"Infrastruktur":"1 Abfalleimer, 1 Brunnen, 1 Feuerplatz, 1 Sitzbank, 1 Tisch, 1 Waldhütte","Kontakt":"Verschönerungsverein Zürich, www.vvzh.ch, 044 821 78 53","Name":"Waldhütte Binz","Anlageelemente":""}}
,{"type":"Feature","geometry":{"type":"Point","coordinates":[8.62202846890989,47.3533861967141]},"properties":{"Infrastruktur":"1 Abfalleimer, 1 Feuerplatz, 1 Sitzbank","Kontakt":"Verschönerungsverein Zürich, www.vvzh.ch, 044 821 78 53","Name":"Geerlibuchweg","Anlageelemente":"Aussicht"}}
,{"type":"Feature","geometry":{"type":"Point","coordinates":[8.47572227582299,47.3679212578752]},"properties":{"Infrastruktur":"1 Brunnen, 1 Feuerplatz, 1 Infotafel, 1 Tisch, 1 Waldweiher, 2 Abfalleimer, 2 Waldhütten, 9 Sitzbänke","Kontakt":"GSZ Waldrevier Uetliberg, www.stadt-zuerich.ch/gsz, 044 463 14 04","Name":"Blockhaus","Anlageelemente":""}}
,{"type":"Feature","geometry":{"type":"Point","coordinates":[8.48727211872448,47.3610976516983]},"properties":{"Infrastruktur":"1 Brunnen, 11 Tische, 2 Waldhütten, 5 Feuerplätze, 5 Sitzbänke, 6 Abfalleimer","Kontakt":"GSZ Waldrevier Uetliberg, www.stadt-zuerich.ch/gsz, 044 463 14 04","Name":"Fuchs Hohensteinplatz","Anlageelemente":"Spielplatz, Aussicht"}}
,{"type":"Feature","geometry":{"type":"Point","coordinates":[8.49075025792977,47.3512151682266]},"properties":{"Infrastruktur":"1 Brunnen, 4 Tische, 5 Sitzbänke, 6 Abfalleimer, 6 Feuerplätze","Kontakt":"GSZ Waldrevier Uetliberg, www.stadt-zuerich.ch/gsz, 044 463 14 04","Name":"Antenne Fernsehplatz","Anlageelemente":"Spielwiese, Aussicht"}}
,{"type":"Feature","geometry":{"type":"Point","coordinates":[8.48532495068174,47.3572117530719]},"properties":{"Infrastruktur":"1 Abfalleimer, 1 Brunnen, 1 Tisch, 2 Feuerplätze, 2 Sitzbänke","Kontakt":"GSZ Waldrevier Uetliberg, www.stadt-zuerich.ch/gsz, 044 463 14 04","Name":"Aegertenweg","Anlageelemente":""}}
,{"type":"Feature","geometry":{"type":"Point","coordinates":[8.53064769508587,47.4295241956644]},"properties":{"Infrastruktur":"1 Abfalleimer, 1 Brunnen, 1 Feuerplatz, 2 Tische","Kontakt":"Verschönerungsverein Zürich, www.vvzh.ch, 044 302 67 02","Name":"Butti-Brunnen","Anlageelemente":""}}
,{"type":"Feature","geometry":{"type":"Point","coordinates":[8.53002673423472,47.4276057193985]},"properties":{"Infrastruktur":"1 Feuerplatz, 3 Sitzbänke","Kontakt":"Verschönerungsverein Zürich, www.vvzh.ch, 044 302 67 02","Name":"Riedenholz Süd","Anlageelemente":"Aussicht"}}
,{"type":"Feature","geometry":{"type":"Point","coordinates":[8.52593348885824,47.4277099338705]},"properties":{"Infrastruktur":"1 Sitzbank, 1 Waldweiher, 2 Feuerplätze","Kontakt":"Verschönerungsverein Zürich, www.vvzh.ch, 044 302 67 02","Name":"Reckenholz","Anlageelemente":""}}
,{"type":"Feature","geometry":{"type":"Point","coordinates":[8.52718715823213,47.4283876634321]},"properties":{"Infrastruktur":"1 Feuerplatz","Kontakt":"Verschönerungsverein Zürich, www.vvzh.ch, 044 302 67 02","Name":"Ulmenweg","Anlageelemente":""}}
,{"type":"Feature","geometry":{"type":"Point","coordinates":[8.49407778784473,47.4311548219009]},"properties":{"Infrastruktur":"4 Feuerplätze","Kontakt":"GSZ Unterhalt, www.stadt-zuerich.ch/gsz, 044 302 17 44","Name":"Katzensee (Seebad)","Anlageelemente":"Spielplatz, Spielwiese, Badeplatz"}}
,{"type":"Feature","geometry":{"type":"Point","coordinates":[8.4869637362439,47.4215441567959]},"properties":{"Infrastruktur":"1 Abfalleimer, 1 Feuerplatz, 4 Sitzbänke","Kontakt":"Verschönerungsverein Höngg, www.zuerich-hoengg.ch/html/verein_verschoenerungsverein_h_de.php, 044 341 76 78","Name":"Russenbrünneli","Anlageelemente":""}}
,{"type":"Feature","geometry":{"type":"Point","coordinates":[8.48472597945223,47.4146918732801]},"properties":{"Infrastruktur":"1 Brunnen, 1 Feuerplatz, 1 Sitzbank","Kontakt":"Verschönerungsverein Höngg, www.zuerich-hoengg.ch/html/verein_verschoenerungsverein_h_de.php, 044 341 76 78","Name":"Alte regensdorfstrasse Heizenholz","Anlageelemente":""}}
,{"type":"Feature","geometry":{"type":"Point","coordinates":[8.46940477520032,47.3639790367042]},"properties":{"Infrastruktur":"1 Brunnen, 2 Feuerplätze, 2 Tische, 3 Abfalleimer, 5 Sitzbänke","Kontakt":"Verschönerungsverein Zürich, www.vvzh.ch, 044 491 69 79","Name":"Unterer Brand","Anlageelemente":""}}
,{"type":"Feature","geometry":{"type":"Point","coordinates":[8.50170184061399,47.3518993877219]},"properties":{"Infrastruktur":"1 Feuerplatz, 2 Sitzbänke","Kontakt":"GSZ Waldrevier Uetliberg, www.stadt-zuerich.ch/gsz, 044 463 14 04","Name":"Kolbenhoferegg","Anlageelemente":""}}
,{"type":"Feature","geometry":{"type":"Point","coordinates":[8.49828943881515,47.3428458124039]},"properties":{"Infrastruktur":"1 Abfalleimer, 1 Feuerplatz, 1 Sitzbank, 1 Tisch","Kontakt":"Verschönerungsverein Zürich, www.vvzh.ch, 044 710 08 48","Name":"Mediker Boden","Anlageelemente":"Kiesplatz"}}
,{"type":"Feature","geometry":{"type":"Point","coordinates":[8.52912522605452,47.4042770780216]},"properties":{"Infrastruktur":"1 Feuerplatz, 3 Sitzbänke","Kontakt":"GSZ Waldrevier Nord, www.stadt-zuerich.ch/gsz, 044 251 89 47","Name":"Eichhörnliweg","Anlageelemente":""}}
,{"type":"Feature","geometry":{"type":"Point","coordinates":[8.5130808327734,47.4070185379062]},"properties":{"Infrastruktur":"1 Brunnen, 2 Abfalleimer, 4 Feuerplätze, 7 Sitzbänke","Kontakt":"GSZ Unterhalt, www.stadt-zuerich.ch/gsz, 044 322 14 00","Name":"Glaubten-Müseli, Schafmatt 2","Anlageelemente":"Spielplatz, Spielwiese"}}
,{"type":"Feature","geometry":{"type":"Point","coordinates":[8.47867805393953,47.3755003397458]},"properties":{"Infrastruktur":"1 Brunnen, 1 Waldhütte, 2 Sitzbänke, 4 Feuerplätze, 5 Tische","Kontakt":"GSZ Waldrevier Uetliberg, www.stadt-zuerich.ch/gsz, 044 463 14 04","Name":"Hasenrain","Anlageelemente":"Spielplatz, Spielwiese"}}
,{"type":"Feature","geometry":{"type":"Point","coordinates":[8.57662063455316,47.3788596073684]},"properties":{"Infrastruktur":"1 Brunnen, 1 Tisch, 4 Feuerplätze, 5 Abfalleimer, 8 Sitzbänke","Kontakt":"GSZ Unterhalt, www.stadt-zuerich.ch/gsz, 044 422 54 97","Name":"Dreiwiesen","Anlageelemente":"Spielwiese"}}
,{"type":"Feature","geometry":{"type":"Point","coordinates":[8.59309496588499,47.3777933207882]},"properties":{"Infrastruktur":"1 Abfalleimer, 1 Brunnen, 1 Feuerplatz, 1 Tisch, 1 Waldhütte, 2 Sitzbänke","Kontakt":"GSZ Waldrevier Nord, www.stadt-zuerich.ch/gsz, 044 251 89 47","Name":"Oetenbacherholzstrasse","Anlageelemente":""}}
,{"type":"Feature","geometry":{"type":"Point","coordinates":[8.59877172914614,47.3697459585147]},"properties":{"Infrastruktur":"1 Aussichtsturm, 1 Waldhütte, 2 Abfalleimer, 3 Feuerplätze, 9 Sitzbänke","Kontakt":"GSZ Waldrevier Nord, www.stadt-zuerich.ch/gsz, 044 251 89 47","Name":"Loorenkopf","Anlageelemente":""}}
,{"type":"Feature","geometry":{"type":"Point","coordinates":[8.59092839457956,47.3692993427366]},"properties":{"Infrastruktur":"1 Brunnen, 1 Feuerplatz, 2 Sitzbänke","Kontakt":"GSZ Waldrevier Nord, www.stadt-zuerich.ch/gsz, 044 251 89 47","Name":"Boxerbrunnen","Anlageelemente":""}}
,{"type":"Feature","geometry":{"type":"Point","coordinates":[8.5906252163625,47.3679168162268]},"properties":{"Infrastruktur":"1 Abfalleimer, 1 Feuerplatz, 1 Tisch, 3 Sitzbänke","Kontakt":"GSZ Waldrevier Nord, www.stadt-zuerich.ch/gsz, 044 251 89 47","Name":"Thalwilerbänkli","Anlageelemente":""}}
,{"type":"Feature","geometry":{"type":"Point","coordinates":[8.52056222401371,47.4020415040805]},"properties":{"Infrastruktur":"1 Feuerplatz, 1 Sitzbank, 1 Tisch","Kontakt":"GSZ Waldrevier Nord, www.stadt-zuerich.ch/gsz, 044 251 89 47","Name":"Lindenweg, Altes Reservoir","Anlageelemente":""}}
,{"type":"Feature","geometry":{"type":"Point","coordinates":[8.51479012626005,47.4016896352316]},"properties":{"Infrastruktur":"1 Abfalleimer, 1 Feuerplatz, 6 Sitzbänke","Kontakt":"GSZ Waldrevier Nord, www.stadt-zuerich.ch/gsz, 044 251 89 47","Name":"Waid","Anlageelemente":"Aussicht"}}
,{"type":"Feature","geometry":{"type":"Point","coordinates":[8.51953855210332,47.3256842085995]},"properties":{"Infrastruktur":"1 Sitzbank, 1 Tisch, 3 Feuerplätze","Kontakt":"GSZ Waldrevier Uetliberg, www.stadt-zuerich.ch/gsz, 044 463 14 04","Name":"ARA Adliswil","Anlageelemente":"Bach"}}
,{"type":"Feature","geometry":{"type":"Point","coordinates":[8.5246259539021,47.3281201999384]},"properties":{"Infrastruktur":"1 Brunnen, 1 Feuerplatz, 1 Waldhütte, 2 Sitzbänke","Kontakt":"GSZ Waldrevier Uetliberg, www.stadt-zuerich.ch/gsz, 044 463 14 04","Name":"Entlisberghütte","Anlageelemente":""}}
,{"type":"Feature","geometry":{"type":"Point","coordinates":[8.58714881446847,47.3727088516629]},"properties":{"Infrastruktur":"1 Abfalleimer, 1 Feuerplatz, 2 Sitzbänke","Kontakt":"GSZ Waldrevier Nord, www.stadt-zuerich.ch/gsz, 044 251 89 47","Name":"Hans Rölliweg","Anlageelemente":""}}
,{"type":"Feature","geometry":{"type":"Point","coordinates":[8.59044862700734,47.3705258431017]},"properties":{"Infrastruktur":"1 Feuerplatz, 3 Tische, 7 Sitzbänke","Kontakt":"GSZ Waldrevier Nord, www.stadt-zuerich.ch/gsz, 044 251 89 47","Name":"Känzeli","Anlageelemente":""}}
,{"type":"Feature","geometry":{"type":"Point","coordinates":[8.59118360303053,47.3742506994829]},"properties":{"Infrastruktur":"1 Abfalleimer, 1 Brunnen, 1 Tisch, 2 Feuerplätze, 2 Sitzbänke","Kontakt":"GSZ Waldrevier Nord, www.stadt-zuerich.ch/gsz, 044 251 89 47","Name":"Untere Forsthausstrasse","Anlageelemente":"Bach"}}
,{"type":"Feature","geometry":{"type":"Point","coordinates":[8.57799136991157,47.3824237259121]},"properties":{"Infrastruktur":"1 Brunnen, 1 Feuerplatz, 1 Waldhütte, 3 Sitzbänke","Kontakt":"GSZ Waldrevier Nord, www.stadt-zuerich.ch/gsz, 044 251 89 47","Name":"Tscharli Platz","Anlageelemente":""}}
,{"type":"Feature","geometry":{"type":"Point","coordinates":[8.5690312888536,47.3586218794177]},"properties":{"Infrastruktur":"1 Brunnen, 2 Abfalleimer, 2 Feuerplätze, 2 Tische, 6 Sitzbänke","Kontakt":"GSZ Unterhalt, www.stadt-zuerich.ch/gsz, 044 422 54 97","Name":"Mühlebödeli","Anlageelemente":"Spielwiese, Bach"}}
,{"type":"Feature","geometry":{"type":"Point","coordinates":[8.54156716209379,47.4061145636911]},"properties":{"Infrastruktur":"1 Feuerplatz, 4 Tische, 5 Sitzbänke","Kontakt":"GSZ Unterhalt, www.stadt-zuerich.ch/gsz, 044 322 02 20","Name":"Oerliker Wäldli","Anlageelemente":"Spielplatz"}}
,{"type":"Feature","geometry":{"type":"Point","coordinates":[8.50070940569462,47.3215775649886]},"properties":{"Infrastruktur":"1 Abfalleimer, 1 Brunnen, 1 Feuerplatz, 4 Sitzbänke","Kontakt":"Verschönerungsverein Zürich, www.vvzh.ch, 044 710 08 48","Name":"Balderen","Anlageelemente":""}}
,{"type":"Feature","geometry":{"type":"Point","coordinates":[8.49783958221514,47.3435079728841]},"properties":{"Infrastruktur":"1 Feuerplatz, 1 Infotafel, 2 Abfalleimer, 3 Sitzbänke","Kontakt":"Verschönerungsverein Zürich, www.vvzh.ch, 044 710 08 48","Name":"Schanze Gratstrasse","Anlageelemente":"Aussicht"}}
,{"type":"Feature","geometry":{"type":"Point","coordinates":[8.49791777126458,47.3452080853915]},"properties":{"Infrastruktur":"1 Brunnen, 1 Feuerplatz, 1 Waldhütte, 2 Tische","Kontakt":"GSZ Waldrevier Uetliberg, www.stadt-zuerich.ch/gsz, 044 463 14 04","Name":"Annaburg","Anlageelemente":"Aussicht, Spielwiese"}}
,{"type":"Feature","geometry":{"type":"Point","coordinates":[8.4944395739338,47.360782355212]},"properties":{"Infrastruktur":"1 Brunnen, 2 Sitzbänke","Kontakt":"GSZ Waldrevier Uetliberg, www.stadt-zuerich.ch/gsz, 044 463 14 04","Name":"Banzwiese","Anlageelemente":""}}
,{"type":"Feature","geometry":{"type":"Point","coordinates":[8.49318987253469,47.3618616810026]},"properties":{"Infrastruktur":"1 Brunnen, 1 Feuerplatz, 1 Sitzbank, 4 Tische","Kontakt":"GSZ Waldrevier Uetliberg, www.stadt-zuerich.ch/gsz, 044 463 14 04","Name":"Banzwiesenstr/Hohensteinweg","Anlageelemente":""}}
,{"type":"Feature","geometry":{"type":"Point","coordinates":[8.50834266101393,47.3306162382033]},"properties":{"Infrastruktur":"1 Feuerplatz, 4 Sitzbänke","Kontakt":"GSZ Waldrevier Uetliberg, www.stadt-zuerich.ch/gsz, 044 463 14 04","Name":"Kamelbuckel","Anlageelemente":"Aussicht"}}
,{"type":"Feature","geometry":{"type":"Point","coordinates":[8.50706822084226,47.330405563629]},"properties":{"Infrastruktur":"1 Tisch, 2 Sitzbänke, 3 Feuerplätze","Kontakt":"GSZ Waldrevier Uetliberg, www.stadt-zuerich.ch/gsz, 044 463 14 04","Name":"Kleeweid","Anlageelemente":"Aussicht"}}
,{"type":"Feature","geometry":{"type":"Point","coordinates":[8.51262573471381,47.3348760711943]},"properties":{"Infrastruktur":"1 Brunnen, 1 Sitzbank, 2 Abfalleimer, 2 Feuerplätze, 2 Tische","Kontakt":"GSZ Waldrevier Uetliberg, www.stadt-zuerich.ch/gsz, 044 463 14 04","Name":"Maneggweg","Anlageelemente":"Aussicht, Wiese"}}
,{"type":"Feature","geometry":{"type":"Point","coordinates":[8.51131895472584,47.3402807934404]},"properties":{"Infrastruktur":"1 Feuerplatz, 1 Infotafel, 4 Sitzbänke","Kontakt":"GSZ Waldrevier Uetliberg, www.stadt-zuerich.ch/gsz, 044 463 14 04","Name":"Medikerweg","Anlageelemente":"Aussicht"}}
,{"type":"Feature","geometry":{"type":"Point","coordinates":[8.5099740577184,47.3370758518161]},"properties":{"Infrastruktur":"1 Brunnen, 2 Sitzbänke","Kontakt":"Verschönerungsverein Zürich, www.vvzh.ch, 044 710 08 48","Name":"Ruine Manegg","Anlageelemente":""}}
,{"type":"Feature","geometry":{"type":"Point","coordinates":[8.50219383839993,47.3366256819404]},"properties":{"Infrastruktur":"1 Abfalleimer, 1 Feuerplatz, 1 Tisch","Kontakt":"Verschönerungsverein Zürich, www.vvzh.ch, 044 710 08 48","Name":"Fallätsche","Anlageelemente":""}}
,{"type":"Feature","geometry":{"type":"Point","coordinates":[8.51746239091975,47.3559395849139]},"properties":{"Infrastruktur":"1 Feuerplatz, 1 Tisch, 2 Abfalleimer, 3 Sitzbänke","Kontakt":"GSZ Waldrevier Uetliberg, www.stadt-zuerich.ch/gsz, 044 463 14 04","Name":"Tamboureneiche","Anlageelemente":"Aussicht, Spielwiese"}}
,{"type":"Feature","geometry":{"type":"Point","coordinates":[8.52317512698334,47.324677109658]},"properties":{"Infrastruktur":"1 Brunnen, 1 Feuerplatz, 4 Sitzbänke, 4 Tische","Kontakt":"GSZ Waldrevier Uetliberg, www.stadt-zuerich.ch/gsz, 044 463 14 04","Name":"Entlisbergkopf","Anlageelemente":"Aussicht"}}
,{"type":"Feature","geometry":{"type":"Point","coordinates":[8.5246669680744,47.3291276170224]},"properties":{"Infrastruktur":"1 Brunnen, 1 Feuerplatz, 1 Wegweiser, 3 Sitzbänke","Kontakt":"GSZ Waldrevier Uetliberg, www.stadt-zuerich.ch/gsz, 044 463 14 04","Name":"VVZ Brunnen Rütliweg","Anlageelemente":"Wiese"}}
,{"type":"Feature","geometry":{"type":"Point","coordinates":[8.48938956777161,47.4166489380683]},"properties":{"Infrastruktur":"1 Abfalleimer, 1 Brunnen, 2 Feuerplätze, 2 Sitzbänke","Kontakt":"Verschönerungsverein Höngg, www.zuerich-hoengg.ch/html/verein_verschoenerungsverein_h_de.php, 044 341 76 78","Name":"Bergholz","Anlageelemente":""}}
,{"type":"Feature","geometry":{"type":"Point","coordinates":[8.50159928007371,47.4108311766527]},"properties":{"Infrastruktur":"1 Abfalleimer, 1 Brunnen, 2 Tisch, 1 Waldhütte, 1 Feuerplatz, 9 Sitzbänke","Kontakt":"Verschönerungsverein Höngg, www.zuerich-hoengg.ch/html/verein_verschoenerungsverein_h_de.php, 044 341 76 78","Name":"Kappeli","Anlageelemente":""}}
,{"type":"Feature","geometry":{"type":"Point","coordinates":[8.50307468203893,47.4110248947653]},"properties":{"Infrastruktur":"1 Feuerplatz, 2 Tische, 4 Sitzbänke","Kontakt":"Verschönerungsverein Höngg, www.zuerich-hoengg.ch/html/verein_verschoenerungsverein_h_de.php, 044 341 76 78","Name":"Schachtisch","Anlageelemente":"Bach"}}
,{"type":"Feature","geometry":{"type":"Point","coordinates":[8.50204067953326,47.4136546846451]},"properties":{"Infrastruktur":"1 Feuerplatz, 2 Sitzbänke","Kontakt":"Verschönerungsverein Höngg, www.zuerich-hoengg.ch/html/verein_verschoenerungsverein_h_de.php, 044 341 76 78","Name":"Tobelholzweg","Anlageelemente":""}}
,{"type":"Feature","geometry":{"type":"Point","coordinates":[8.52237810481078,47.4090664634113]},"properties":{"Infrastruktur":"1 Abfalleimer, 1 Feuerplatz, 1 Tisch, 3 Sitzbänke","Kontakt":"GSZ Waldrevier Nord, www.stadt-zuerich.ch/gsz, 044 251 89 47","Name":"Rumpelhalde","Anlageelemente":"Aussicht"}}
,{"type":"Feature","geometry":{"type":"Point","coordinates":[8.52944089463102,47.3989418356951]},"properties":{"Infrastruktur":"1 Tisch, 3 Sitzbänke","Kontakt":"GSZ Waldrevier Nord, www.stadt-zuerich.ch/gsz, 044 251 89 47","Name":"Rötelterrasse","Anlageelemente":"Aussicht"}}
,{"type":"Feature","geometry":{"type":"Point","coordinates":[8.52939424079059,47.399640590228]},"properties":{"Infrastruktur":"1 Brunnen, 1 Waldhütte, 3 Feuerplätze, 3 Tische, 5 Abfalleimer, 8 Sitzbänke","Kontakt":"GSZ Waldrevier Nord, www.stadt-zuerich.ch/gsz, 044 251 89 47","Name":"Unterer Spielplatz","Anlageelemente":"Kiesplatz"}}
,{"type":"Feature","geometry":{"type":"Point","coordinates":[8.49949830956445,47.3551371603569]},"properties":{"Infrastruktur":"1 Sitzbank, 2 Feuerplätze, 2 Tische","Kontakt":"GSZ Waldrevier Uetliberg, www.stadt-zuerich.ch/gsz, 044 463 14 04","Name":"Friesenberg","Anlageelemente":""}}
,{"type":"Feature","geometry":{"type":"Point","coordinates":[8.50340291805482,47.3525546566912]},"properties":{"Infrastruktur":"1 Feuerplatz, 1 Tisch","Kontakt":"GSZ Waldrevier Uetliberg, www.stadt-zuerich.ch/gsz, 044 463 14 04","Name":"Kolbenhof","Anlageelemente":""}}
,{"type":"Feature","geometry":{"type":"Point","coordinates":[8.51316478518002,47.3515209953541]},"properties":{"Infrastruktur":"1 Feuerplatz, 3 Sitzbänke","Kontakt":"GSZ Waldrevier Uetliberg, www.stadt-zuerich.ch/gsz, 044 463 14 04","Name":"Gänziloo","Anlageelemente":""}}
,{"type":"Feature","geometry":{"type":"Point","coordinates":[8.52422547123426,47.3338966761559]},"properties":{"Infrastruktur":"1 Brunnen, 2 Sitzbänke","Kontakt":"GSZ Waldrevier Uetliberg, www.stadt-zuerich.ch/gsz, 044 463 14 04","Name":"Gstalder","Anlageelemente":""}}
,{"type":"Feature","geometry":{"type":"Point","coordinates":[8.5994547517706,47.3696316091905]},"properties":{"Infrastruktur":"1 Brunnen, 1 Feuerplatz, 5 Tische","Kontakt":"GSZ Waldrevier Nord, www.stadt-zuerich.ch/gsz, 044 251 89 47","Name":"Milan","Anlageelemente":""}}
,{"type":"Feature","geometry":{"type":"Point","coordinates":[8.51221774902301,47.4076472720118]},"properties":{"Infrastruktur":"2 Abfalleimer, 3 Feuerplätze, 6 Sitzbänke","Kontakt":"GSZ Unterhalt, www.stadt-zuerich.ch/gsz, 044 322 14 00","Name":"Schafmatt 1","Anlageelemente":"Spielplatz, Spielwiese"}}
,{"type":"Feature","geometry":{"type":"Point","coordinates":[8.52667878501269,47.4007986858745]},"properties":{"Infrastruktur":"1 Tisch, 2 Abfalleimer, 3 Feuerplätze, 6 Sitzbänke","Kontakt":"GSZ Waldrevier Nord, www.stadt-zuerich.ch/gsz, 044 251 89 47","Name":"Oberer Spielplatz","Anlageelemente":"Spielwiese"}}
,{"type":"Feature","geometry":{"type":"Point","coordinates":[8.52682944931985,47.3990329676116]},"properties":{"Infrastruktur":"1 Feuerplatz, 1 Tisch, 2 Sitzbänke","Kontakt":"GSZ Waldrevier Nord, www.stadt-zuerich.ch/gsz, 044 251 89 47","Name":"Skatmatt","Anlageelemente":""}}
,{"type":"Feature","geometry":{"type":"Point","coordinates":[8.52371039493907,47.4024257980121]},"properties":{"Infrastruktur":"1 Feuerplatz, 1 Tisch, 3 Sitzbänke","Kontakt":"GSZ Waldrevier Nord, www.stadt-zuerich.ch/gsz, 044 251 89 47","Name":"Rondell","Anlageelemente":""}}
,{"type":"Feature","geometry":{"type":"Point","coordinates":[8.5249942699539,47.4027808740116]},"properties":{"Infrastruktur":"1 Abfalleimer, 1 Brunnen, 1 Feuerplatz, 1 Sitzbank, 2 Tische","Kontakt":"GSZ Waldrevier Nord, www.stadt-zuerich.ch/gsz, 044 251 89 47","Name":"Reservoir Käferberg","Anlageelemente":""}}
,{"type":"Feature","geometry":{"type":"Point","coordinates":[8.52196077493652,47.4032900427866]},"properties":{"Infrastruktur":"1 Brunnen, 1 Sitzbank, 1 Waldweiher, 4 Abfalleimer, 4 Tische, 5 Feuerplätze","Kontakt":"GSZ Waldrevier Nord, www.stadt-zuerich.ch/gsz, 044 251 89 47","Name":"Käferberg-Weiher","Anlageelemente":""}}
,{"type":"Feature","geometry":{"type":"Point","coordinates":[8.51238014130722,47.4029487534993]},"properties":{"Infrastruktur":"1 Abfalleimer, 1 Feuerplatz, 2 Sitzbänke","Kontakt":"Verschönerungsverein Höngg, www.zuerich-hoengg.ch/html/verein_verschoenerungsverein_h_de.php, 044 341 76 78","Name":"Waidbergweg","Anlageelemente":"Aussicht"}}
,{"type":"Feature","geometry":{"type":"Point","coordinates":[8.51030766489824,47.4018120611985]},"properties":{"Infrastruktur":"2 Feuerplätze, 4 Sitzbänke","Kontakt":"Verschönerungsverein Höngg, www.zuerich-hoengg.ch/html/verein_verschoenerungsverein_h_de.php, 044 341 76 78","Name":"Zweifelseiche","Anlageelemente":"Aussicht"}}
,{"type":"Feature","geometry":{"type":"Point","coordinates":[8.5150872936731,47.4032050831114]},"properties":{"Infrastruktur":"3 Tische, 5 Abfalleimer, 5 Feuerplätze","Kontakt":"GSZ Unterhalt, www.stadt-zuerich.ch/gsz, 044 322 14 00","Name":"Waidbad","Anlageelemente":"Spielplatz, Spielwiese"}}
,{"type":"Feature","geometry":{"type":"Point","coordinates":[8.57902175017772,47.3631261744803]},"properties":{"Infrastruktur":"1 Brunnen, 1 Feuerplatz, 1 Tisch, 1 Waldhütte","Kontakt":"GSZ Waldrevier Nord, www.stadt-zuerich.ch/gsz, 044 251 89 47","Name":"Elefant","Anlageelemente":"Bach"}}
,{"type":"Feature","geometry":{"type":"Point","coordinates":[8.58421918212159,47.3617813974372]},"properties":{"Infrastruktur":"1 Brunnen, 1 Waldhütte, 1 Waldweiher, 4 Feuerplätze, 5 Abfalleimer, 6 Tische, 7 Sitzbänke","Kontakt":"GSZ Unterhalt, www.stadt-zuerich.ch/gsz, 044 381 01 00","Name":"Buchholz","Anlageelemente":"Spielplatz, WC"}}
,{"type":"Feature","geometry":{"type":"Point","coordinates":[8.58092940011583,47.3659822376456]},"properties":{"Infrastruktur":"1 Abfalleimer, 1 Brunnen, 1 Feuerplatz, 1 Sitzbank, 1 Waldhütte","Kontakt":"GSZ Waldrevier Nord, www.stadt-zuerich.ch/gsz, 044 251 89 47","Name":"Stöckentobelhütte","Anlageelemente":""}}
,{"type":"Feature","geometry":{"type":"Point","coordinates":[8.5781083929266,47.3676530187981]},"properties":{"Infrastruktur":"1 Brunnen, 1 Waldweiher, 2 Tische, 3 Feuerplätze, 4 Abfalleimer, 8 Sitzbänke","Kontakt":"GSZ Waldrevier Nord, www.stadt-zuerich.ch/gsz, 044 251 89 47","Name":"Degenried","Anlageelemente":"Wiese"}}
,{"type":"Feature","geometry":{"type":"Point","coordinates":[8.57243760320586,47.365832239306]},"properties":{"Infrastruktur":"1 Feuerplatz, 1 Tisch, 3 Sitzbänke","Kontakt":"GSZ Waldrevier Nord, www.stadt-zuerich.ch/gsz, 044 251 89 47","Name":"Blaumeise","Anlageelemente":""}}
,{"type":"Feature","geometry":{"type":"Point","coordinates":[8.57586328118451,47.366166153856]},"properties":{"Infrastruktur":"1 Brunnen, 2 Abfalleimer, 2 Feuerplätze, 2 Sitzbänke, 2 Tische","Kontakt":"GSZ Waldrevier Nord, www.stadt-zuerich.ch/gsz, 044 251 89 47","Name":"Biberlinsterrasse","Anlageelemente":"Kiesplatz"}}
,{"type":"Feature","geometry":{"type":"Point","coordinates":[8.47234964750488,47.3819363930179]},"properties":{"Infrastruktur":"1 Abfalleimer, 1 Brunnen, 1 Feuerplatz, 1 Tisch, 2 Sitzbänke","Kontakt":"GSZ Waldrevier Uetliberg, www.stadt-zuerich.ch/gsz, 044 463 14 04","Name":"Im Schlagbach","Anlageelemente":"Bach"}}
,{"type":"Feature","geometry":{"type":"Point","coordinates":[8.46578393727827,47.3863088817965]},"properties":{"Infrastruktur":"1 Brunnen, 3 Feuerplätze, 3 Tische","Kontakt":"GSZ Waldrevier Uetliberg, www.stadt-zuerich.ch/gsz, 044 463 14 04","Name":"Dunkelhölzli","Anlageelemente":"Bach"}}
,{"type":"Feature","geometry":{"type":"Point","coordinates":[8.47377968851401,47.379545618132]},"properties":{"Infrastruktur":"1 Feuerplatz, 1 Tisch, 2 Sitzbänke","Kontakt":"GSZ Waldrevier Uetliberg, www.stadt-zuerich.ch/gsz, 044 463 14 04","Name":"Reservoir Lyren","Anlageelemente":"Aussicht"}}
,{"type":"Feature","geometry":{"type":"Point","coordinates":[8.45988997190563,47.3810967551122]},"properties":{"Infrastruktur":"1 Brunnen, 1 Waldhütte, 2 Sitzbänke, 3 Abfalleimer, 3 Feuerplätze, 9 Tische","Kontakt":"GSZ Waldrevier Uetliberg, www.stadt-zuerich.ch/gsz, 044 463 14 04","Name":"Frauenmatt","Anlageelemente":"Bach"}}
,{"type":"Feature","geometry":{"type":"Point","coordinates":[8.46972911127899,47.3758822053071]},"properties":{"Infrastruktur":"1 Abfalleimer, 1 Feuerplatz, 1 Sitzbank, 1 Tisch","Kontakt":"GSZ Waldrevier Uetliberg, www.stadt-zuerich.ch/gsz, 044 463 14 04","Name":"Cherigatter","Anlageelemente":""}}
,{"type":"Feature","geometry":{"type":"Point","coordinates":[8.46816324465712,47.3775254217494]},"properties":{"Infrastruktur":"1 Abfalleimer, 1 Brunnen, 1 Feuerplatz, 2 Tische","Kontakt":"GSZ Waldrevier Uetliberg, www.stadt-zuerich.ch/gsz, 044 463 14 04","Name":"Grossmutter","Anlageelemente":""}}
,{"type":"Feature","geometry":{"type":"Point","coordinates":[8.56810516057604,47.4008819701057]},"properties":{"Infrastruktur":"1 Brunnen, 2 Tische, 3 Feuerplätze","Kontakt":"GSZ Waldrevier Nord, www.stadt-zuerich.ch/gsz, 044 251 89 47","Name":"Wasserrad","Anlageelemente":"Wasserrad"}}
,{"type":"Feature","geometry":{"type":"Point","coordinates":[8.51681978455377,47.3497118916322]},"properties":{"Infrastruktur":"","Kontakt":"GSZ Waldrevier Uetliberg, www.stadt-zuerich.ch/gsz, 044 463 14 04","Name":"Allmend","Anlageelemente":"Fluss, Wiese"}}
,{"type":"Feature","geometry":{"type":"Point","coordinates":[8.52251429733258,47.3345439770507]},"properties":{"Infrastruktur":"1 Feuerplatz, 2 Sitzbänke, 2 Tische","Kontakt":"GSZ Waldrevier Uetliberg, www.stadt-zuerich.ch/gsz, 044 463 14 04","Name":"Spinne","Anlageelemente":""}}
,{"type":"Feature","geometry":{"type":"Point","coordinates":[8.47768834035103,47.3746032693703]},"properties":{"Infrastruktur":"1 Feuerplatz, 3 Tische","Kontakt":"GSZ Waldrevier Uetliberg, www.stadt-zuerich.ch/gsz, 044 463 14 04","Name":"Hasenrainhütte","Anlageelemente":"Spielwiese"}}
]}
