{"name":"Sammelstelle","type":"FeatureCollection"
,"features":[
{"type":"Feature","geometry":{"type":"Point","coordinates":[8.49635878104274,47.3755991152162]},"properties":{"Metall":"X","Ort":"Zürich","www":"http://www.stadt-zuerich.ch/ted/de/index/entsorgung_recycling.html","Glas":"X","Adresse":"Mühlezelgstrasse 1a","PLZ":"8047","Tel":"044 645 77 77","Öl":"","Name":"Mühlezelgstrasse 1a/ Letzigraben"}}
,{"type":"Feature","geometry":{"type":"Point","coordinates":[8.53557157513799,47.3622984145114]},"properties":{"Metall":"","Ort":"Zürich","www":"http://www.stadt-zuerich.ch/ted/de/index/entsorgung_recycling.html","Glas":"X","Adresse":"Mythenquai 1","PLZ":"8002","Tel":"044 645 77 77","Öl":"","Name":"Mythenquai 1"}}
,{"type":"Feature","geometry":{"type":"Point","coordinates":[8.53206820443554,47.3566734175122]},"properties":{"Metall":"X","Ort":"Zürich","www":"http://www.stadt-zuerich.ch/ted/de/index/entsorgung_recycling.html","Glas":"X","Adresse":"Brunaustrasse 6","PLZ":"8002","Tel":"044 645 77 77","Öl":"X","Name":"Brunaustrasse / Seestrasse"}}
,{"type":"Feature","geometry":{"type":"Point","coordinates":[8.51441949667514,47.3328940450662]},"properties":{"Metall":"X","Ort":"Zürich","www":"http://www.stadt-zuerich.ch/ted/de/index/entsorgung_recycling.html","Glas":"X","Adresse":"Maneggpromenade 88","PLZ":"8041","Tel":"044 645 77 77","Öl":"","Name":"Maneggpromenade vis-à-vis 88"}}
,{"type":"Feature","geometry":{"type":"Point","coordinates":[8.52663873139007,47.3468390363253]},"properties":{"Metall":"X","Ort":"Zürich","www":"http://www.stadt-zuerich.ch/ted/de/index/entsorgung_recycling.html","Glas":"X","Adresse":"Salomon-Vögelin-Strasse 3","PLZ":"8038","Tel":"044 645 77 77","Öl":"","Name":"Salomon-Vögelin-Strasse 3"}}
,{"type":"Feature","geometry":{"type":"Point","coordinates":[8.57211564964999,47.4135054377407]},"properties":{"Metall":"X","Ort":"Zürich","www":"http://www.stadt-zuerich.ch/ted/de/index/entsorgung_recycling.html","Glas":"X","Adresse":"Opfikonstrasse 18","PLZ":"8050","Tel":"044 645 77 77","Öl":"","Name":"Opfikonstrasse 18 / Kehrplatz"}}
,{"type":"Feature","geometry":{"type":"Point","coordinates":[8.54015357514945,47.4103424954686]},"properties":{"Metall":"X","Ort":"Zürich","www":"http://www.stadt-zuerich.ch/ted/de/index/entsorgung_recycling.html","Glas":"X","Adresse":"Oleanderstrasse 1","PLZ":"8050","Tel":"044 645 77 77","Öl":"","Name":"Oleanderstrasse 1 / Affolternstrasse"}}
,{"type":"Feature","geometry":{"type":"Point","coordinates":[8.53079668965876,47.4134806395396]},"properties":{"Metall":"X","Ort":"Zürich","www":"http://www.stadt-zuerich.ch/ted/de/index/entsorgung_recycling.html","Glas":"X","Adresse":"Binzmühlestrasse 210","PLZ":"8050","Tel":"044 645 77 77","Öl":"","Name":"Binzmühlestrasse 210"}}
,{"type":"Feature","geometry":{"type":"Point","coordinates":[8.57851218180475,47.4040336534957]},"properties":{"Metall":"X","Ort":"Zürich","www":"http://www.stadt-zuerich.ch/ted/de/index/entsorgung_recycling.html","Glas":"X","Adresse":"Kronwiesenstrasse 29","PLZ":"8051","Tel":"044 645 77 77","Öl":"","Name":"Kronwiesenstrasse 29"}}
,{"type":"Feature","geometry":{"type":"Point","coordinates":[8.55687711237593,47.4040831747134]},"properties":{"Metall":"X","Ort":"Zürich","www":"http://www.stadt-zuerich.ch/ted/de/index/entsorgung_recycling.html","Glas":"X","Adresse":"Ueberlandstrasse 14","PLZ":"8051","Tel":"044 645 77 77","Öl":"","Name":"Ueberlandstr. 14 / Waldgarten"}}
,{"type":"Feature","geometry":{"type":"Point","coordinates":[8.54008224194423,47.4049731231919]},"properties":{"Metall":"X","Ort":"Zürich","www":"http://www.stadt-zuerich.ch/ted/de/index/entsorgung_recycling.html","Glas":"X","Adresse":"Ringstrasse 72","PLZ":"8057","Tel":"044 645 77 77","Öl":"","Name":"Ringstrasse 72 /  Ulmenweg"}}
,{"type":"Feature","geometry":{"type":"Point","coordinates":[8.4864003410556,47.3967742131597]},"properties":{"Metall":"X","Ort":"Zürich","www":"http://www.stadt-zuerich.ch/ted/de/index/entsorgung_recycling.html","Glas":"X","Adresse":"Grünauring 37","PLZ":"8064","Tel":"044 645 77 77","Öl":"","Name":"Grünauring vis-à-vis 37 / Tüffenwies"}}
,{"type":"Feature","geometry":{"type":"Point","coordinates":[8.52732236384442,47.3971604217023]},"properties":{"Metall":"X","Ort":"Zürich","www":"http://www.stadt-zuerich.ch/ted/de/index/entsorgung_recycling.html","Glas":"X","Adresse":"Weihersteig 7","PLZ":"8037","Tel":"044 645 77 77","Öl":"","Name":"Weihersteig 7/ Wibichstrasse bei Kirche"}}
,{"type":"Feature","geometry":{"type":"Point","coordinates":[8.55218584175454,47.3824951741682]},"properties":{"Metall":"X","Ort":"Zürich","www":"http://www.stadt-zuerich.ch/ted/de/index/entsorgung_recycling.html","Glas":"X","Adresse":"Spyristrasse 20","PLZ":"8044","Tel":"044 645 77 77","Öl":"","Name":"Spyriplatz / Spyristrasse 20"}}
,{"type":"Feature","geometry":{"type":"Point","coordinates":[8.55482969928962,47.376568819255]},"properties":{"Metall":"X","Ort":"Zürich","www":"http://www.stadt-zuerich.ch/ted/de/index/entsorgung_recycling.html","Glas":"X","Adresse":"Moussonstrasse 22","PLZ":"8044","Tel":"044 645 77 77","Öl":"","Name":"Moussonstrasse / Gloriastrasse"}}
,{"type":"Feature","geometry":{"type":"Point","coordinates":[8.59746113656061,47.3621431107627]},"properties":{"Metall":"X","Ort":"Zürich","www":"http://www.stadt-zuerich.ch/ted/de/index/entsorgung_recycling.html","Glas":"X","Adresse":"Katzenschwanzstrasse 28","PLZ":"8053","Tel":"044 645 77 77","Öl":"X","Name":"Katzenschwanzstr. vis-à-vis 28 / Parkplatz"}}
,{"type":"Feature","geometry":{"type":"Point","coordinates":[8.55302150579202,47.3660889229296]},"properties":{"Metall":"X","Ort":"Zürich","www":"http://www.stadt-zuerich.ch/ted/de/index/entsorgung_recycling.html","Glas":"X","Adresse":"Merkurstrasse 4","PLZ":"8032","Tel":"044 645 77 77","Öl":"X","Name":"Merkurstrasse 4"}}
,{"type":"Feature","geometry":{"type":"Point","coordinates":[8.52217798283563,47.3717124826164]},"properties":{"Metall":"X","Ort":"Zürich","www":"http://www.stadt-zuerich.ch/ted/de/index/entsorgung_recycling.html","Glas":"X","Adresse":"Seebahnstrasse 89","PLZ":"8003","Tel":"044 645 77 77","Öl":"","Name":"Seebahnstrasse 89, vis-à-vis Post"}}
,{"type":"Feature","geometry":{"type":"Point","coordinates":[8.51277241735459,47.3936626204654]},"properties":{"Metall":"X","Ort":"Zürich","www":"http://www.stadt-zuerich.ch/ted/de/index/entsorgung_recycling.html","Glas":"X","Adresse":"Hardturmstrasse 126","PLZ":"8005","Tel":"044 645 77 77","Öl":"","Name":"am Hardturmweg / Hardturmstrasse 126"}}
,{"type":"Feature","geometry":{"type":"Point","coordinates":[8.51025379648518,47.3837014717796]},"properties":{"Metall":"X","Ort":"Zürich","www":"http://www.stadt-zuerich.ch/ted/de/index/entsorgung_recycling.html","Glas":"X","Adresse":"Zimmerlistrasse 4","PLZ":"8004","Tel":"044 645 77 77","Öl":"","Name":"Zimmerlistrasse vis-à-vis 4"}}
,{"type":"Feature","geometry":{"type":"Point","coordinates":[8.50228047585077,47.365110409797]},"properties":{"Metall":"X","Ort":"Zürich","www":"http://www.stadt-zuerich.ch/ted/de/index/entsorgung_recycling.html","Glas":"X","Adresse":"Schweighofstrasse 357","PLZ":"8055","Tel":"044 645 77 77","Öl":"X","Name":"Paul-Clairmont- Str. / Schweighofstr. 357"}}
,{"type":"Feature","geometry":{"type":"Point","coordinates":[8.49595601204516,47.3686496228929]},"properties":{"Metall":"X","Ort":"Zürich","www":"http://www.stadt-zuerich.ch/ted/de/index/entsorgung_recycling.html","Glas":"X","Adresse":"Birmensdorferstrasse 488","PLZ":"8055","Tel":"044 645 77 77","Öl":"X","Name":"Birmensdorferstr. 488 / Parkplatz"}}
,{"type":"Feature","geometry":{"type":"Point","coordinates":[8.54937121710871,47.4221726374396]},"properties":{"Metall":"X","Ort":"Zürich","www":"http://www.stadt-zuerich.ch/ted/de/index/entsorgung_recycling.html","Glas":"X","Adresse":"Schaffhauserstrasse 502","PLZ":"8052","Tel":"044 645 77 77","Öl":"X","Name":"Tramendstation Seebach/Parkplatz"}}
,{"type":"Feature","geometry":{"type":"Point","coordinates":[8.49619012972654,47.4037820823927]},"properties":{"Metall":"X","Ort":"Zürich","www":"http://www.stadt-zuerich.ch/ted/de/index/entsorgung_recycling.html","Glas":"X","Adresse":"Riedhofstrasse 9","PLZ":"8049","Tel":"044 645 77 77","Öl":"X","Name":"Riedhofstrasse 9 / Wieslergasse"}}
,{"type":"Feature","geometry":{"type":"Point","coordinates":[8.51118838342413,47.424854097014]},"properties":{"Metall":"X","Ort":"Zürich","www":"http://www.stadt-zuerich.ch/ted/de/index/entsorgung_recycling.html","Glas":"X","Adresse":"Bodenacker 25","PLZ":"8046","Tel":"044 645 77 77","Öl":"","Name":"Wolfwinkel / Bodenacker 25 GZ Affoltern"}}
,{"type":"Feature","geometry":{"type":"Point","coordinates":[8.51386329817853,47.415546384861]},"properties":{"Metall":"X","Ort":"Zürich","www":"http://www.stadt-zuerich.ch/ted/de/index/entsorgung_recycling.html","Glas":"X","Adresse":"Wehntalerstrasse 440","PLZ":"8046","Tel":"044 645 77 77","Öl":"","Name":"Wehntalerstrasse 440 / Neuwiesenstr."}}
,{"type":"Feature","geometry":{"type":"Point","coordinates":[8.50968311044779,47.4139391254061]},"properties":{"Metall":"X","Ort":"Zürich","www":"http://www.stadt-zuerich.ch/ted/de/index/entsorgung_recycling.html","Glas":"X","Adresse":"Lerchenhalde 45","PLZ":"8046","Tel":"044 645 77 77","Öl":"","Name":"Schulhaus Schauenberg / Lerchenhalde 40"}}
,{"type":"Feature","geometry":{"type":"Point","coordinates":[8.47271845992194,47.3890630166461]},"properties":{"Metall":"X","Ort":"Zürich","www":"http://www.stadt-zuerich.ch/ted/de/index/entsorgung_recycling.html","Glas":"X","Adresse":"Loogartenstrasse 37","PLZ":"8048","Tel":"044 645 77 77","Öl":"X","Name":"Loogarten- / Eugen Huber-Strasse"}}
,{"type":"Feature","geometry":{"type":"Point","coordinates":[8.49812462260759,47.3772631028655]},"properties":{"Metall":"X","Ort":"Zürich","www":"http://www.stadt-zuerich.ch/ted/de/index/entsorgung_recycling.html","Glas":"X","Adresse":"Letzigraben 104","PLZ":"8047","Tel":"044 645 77 77","Öl":"","Name":"Letzigraben 104"}}
,{"type":"Feature","geometry":{"type":"Point","coordinates":[8.57436936066419,47.3545377394427]},"properties":{"Metall":"X","Ort":"Zürich","www":"http://www.stadt-zuerich.ch/ted/de/index/entsorgung_recycling.html","Glas":"X","Adresse":"Lenggstrasse 71","PLZ":"8008","Tel":"044 645 77 77","Öl":"","Name":"Lenggstrasse vis à vis 71 / Forchstrasse"}}
,{"type":"Feature","geometry":{"type":"Point","coordinates":[8.56180584806696,47.3511360203305]},"properties":{"Metall":"X","Ort":"Zürich","www":"http://www.stadt-zuerich.ch/ted/de/index/entsorgung_recycling.html","Glas":"X","Adresse":"Seefeldstrasse 233","PLZ":"8008","Tel":"044 645 77 77","Öl":"","Name":"Seefeldstrasse 233"}}
,{"type":"Feature","geometry":{"type":"Point","coordinates":[8.55537881707331,47.3582222967257]},"properties":{"Metall":"X","Ort":"Zürich","www":"http://www.stadt-zuerich.ch/ted/de/index/entsorgung_recycling.html","Glas":"X","Adresse":"Riesbachstrasse 61","PLZ":"8008","Tel":"044 645 77 77","Öl":"","Name":"Riesbachstrasse 61 / Höschgasse"}}
,{"type":"Feature","geometry":{"type":"Point","coordinates":[8.53500628235692,47.3688699764498]},"properties":{"Metall":"X","Ort":"Zürich","www":"http://www.stadt-zuerich.ch/ted/de/index/entsorgung_recycling.html","Glas":"X","Adresse":"Am Schanzengraben 15","PLZ":"8002","Tel":"044 645 77 77","Öl":"","Name":"am Schanzengraben / Gartenstrasse"}}
,{"type":"Feature","geometry":{"type":"Point","coordinates":[8.53563662257932,47.3636449108949]},"properties":{"Metall":"","Ort":"Zürich","www":"http://www.stadt-zuerich.ch/ted/de/index/entsorgung_recycling.html","Glas":"X","Adresse":"General-Guisan-Quai 37","PLZ":"8002","Tel":"044 645 77 77","Öl":"","Name":"General-Guisan-Quai 37"}}
,{"type":"Feature","geometry":{"type":"Point","coordinates":[8.56167127513391,47.4083813035358]},"properties":{"Metall":"X","Ort":"Zürich","www":"http://www.stadt-zuerich.ch/ted/de/index/entsorgung_recycling.html","Glas":"X","Adresse":"Tramstrasse 208","PLZ":"8050","Tel":"044 645 77 77","Öl":"","Name":"Tramstr. 208 / Schulhaus Saatlen"}}
,{"type":"Feature","geometry":{"type":"Point","coordinates":[8.59138670534712,47.4050842918861]},"properties":{"Metall":"X","Ort":"Zürich","www":"http://www.stadt-zuerich.ch/ted/de/index/entsorgung_recycling.html","Glas":"X","Adresse":"Im Altried 3","PLZ":"8051","Tel":"044 645 77 77","Öl":"","Name":"im Altried vis-à-vis 3"}}
,{"type":"Feature","geometry":{"type":"Point","coordinates":[8.5446298752922,47.3936408168439]},"properties":{"Metall":"X","Ort":"Zürich","www":"http://www.stadt-zuerich.ch/ted/de/index/entsorgung_recycling.html","Glas":"X","Adresse":"Langmauerstrasse 90","PLZ":"8057","Tel":"044 645 77 77","Öl":"","Name":"Langmauerstrasse 90"}}
,{"type":"Feature","geometry":{"type":"Point","coordinates":[8.53683303970726,47.3958290646275]},"properties":{"Metall":"X","Ort":"Zürich","www":"http://www.stadt-zuerich.ch/ted/de/index/entsorgung_recycling.html","Glas":"X","Adresse":"Zeppelinstrasse 43","PLZ":"8057","Tel":"044 645 77 77","Öl":"","Name":"Zeppelinstrasse 43 / Spelteriniweg"}}
,{"type":"Feature","geometry":{"type":"Point","coordinates":[8.53005964486232,47.3930418183397]},"properties":{"Metall":"X","Ort":"Zürich","www":"http://www.stadt-zuerich.ch/ted/de/index/entsorgung_recycling.html","Glas":"X","Adresse":"Rousseaustrasse 101","PLZ":"8037","Tel":"044 645 77 77","Öl":"X","Name":"Rousseaustrasse vis-à-vis 102"}}
,{"type":"Feature","geometry":{"type":"Point","coordinates":[8.52116066177939,47.3964267626025]},"properties":{"Metall":"X","Ort":"Zürich","www":"http://www.stadt-zuerich.ch/ted/de/index/entsorgung_recycling.html","Glas":"X","Adresse":"Lehenstrasse 65","PLZ":"8037","Tel":"044 645 77 77","Öl":"","Name":"Lehenstrasse / Griesernweg"}}
,{"type":"Feature","geometry":{"type":"Point","coordinates":[8.54770827044934,47.384984954873]},"properties":{"Metall":"X","Ort":"Zürich","www":"http://www.stadt-zuerich.ch/ted/de/index/entsorgung_recycling.html","Glas":"X","Adresse":"Ottikerstrasse 61","PLZ":"8006","Tel":"044 645 77 77","Öl":"","Name":"Rigiplatz / Ottikerstrasse vis-à-vis 61"}}
,{"type":"Feature","geometry":{"type":"Point","coordinates":[8.5407330720743,47.3877682647634]},"properties":{"Metall":"X","Ort":"Zürich","www":"http://www.stadt-zuerich.ch/ted/de/index/entsorgung_recycling.html","Glas":"X","Adresse":"Weinbergstrasse 131","PLZ":"8006","Tel":"044 645 77 77","Öl":"X","Name":"Röslistrasse / Weinbergstrasse Höhe 131"}}
,{"type":"Feature","geometry":{"type":"Point","coordinates":[8.57751886747539,47.358212757097]},"properties":{"Metall":"X","Ort":"Zürich","www":"http://www.stadt-zuerich.ch/ted/de/index/entsorgung_recycling.html","Glas":"X","Adresse":"Waserstrasse 36","PLZ":"8053","Tel":"044 645 77 77","Öl":"","Name":"Waserstr. vis-à-vis 36 / Eierbrechtstrasse"}}
,{"type":"Feature","geometry":{"type":"Point","coordinates":[8.50612834523127,47.3629804604792]},"properties":{"Metall":"X","Ort":"Zürich","www":"http://www.stadt-zuerich.ch/ted/de/index/entsorgung_recycling.html","Glas":"X","Adresse":"Friesenbergstrasse 193","PLZ":"8055","Tel":"044 645 77 77","Öl":"","Name":"Bolistrasse / Friesenbergstrasse 193"}}
,{"type":"Feature","geometry":{"type":"Point","coordinates":[8.4989313212943,47.4210184374641]},"properties":{"Metall":"X","Ort":"Zürich","www":"http://www.stadt-zuerich.ch/ted/de/index/entsorgung_recycling.html","Glas":"X","Adresse":"Georg-Kempf-Strasse 53","PLZ":"8046","Tel":"044 645 77 77","Öl":"","Name":"Georg-Kempf-Strasse 53"}}
,{"type":"Feature","geometry":{"type":"Point","coordinates":[8.48661719800279,47.3845750062378]},"properties":{"Metall":"X","Ort":"Zürich","www":"http://www.stadt-zuerich.ch/ted/de/index/entsorgung_recycling.html","Glas":"X","Adresse":"Eugen-Huber-Strasse 4","PLZ":"8048","Tel":"044 645 77 77","Öl":"","Name":"Schulhaus Eugen Huber"}}
,{"type":"Feature","geometry":{"type":"Point","coordinates":[8.48575429347462,47.3871643964574]},"properties":{"Metall":"X","Ort":"Zürich","www":"http://www.stadt-zuerich.ch/ted/de/index/entsorgung_recycling.html","Glas":"X","Adresse":"Altstetterstrasse 162","PLZ":"8048","Tel":"044 645 77 77","Öl":"","Name":"Pfarrhausstrasse / Altstetterstr. 162"}}
,{"type":"Feature","geometry":{"type":"Point","coordinates":[8.48733302499901,47.3758703497715]},"properties":{"Metall":"X","Ort":"Zürich","www":"http://www.stadt-zuerich.ch/ted/de/index/entsorgung_recycling.html","Glas":"X","Adresse":"Albisriederstrasse 334","PLZ":"8047","Tel":"044 645 77 77","Öl":"X","Name":"Albisriederhaus (A Park)"}}
,{"type":"Feature","geometry":{"type":"Point","coordinates":[8.56028970246705,47.3547474505524]},"properties":{"Metall":"X","Ort":"Zürich","www":"http://www.stadt-zuerich.ch/ted/de/index/entsorgung_recycling.html","Glas":"X","Adresse":"Mühlebachstrasse 200","PLZ":"8008","Tel":"044 645 77 77","Öl":"","Name":"Mühlebachstrasse 200"}}
,{"type":"Feature","geometry":{"type":"Point","coordinates":[8.55538005111302,47.356702087505]},"properties":{"Metall":"X","Ort":"Zürich","www":"http://www.stadt-zuerich.ch/ted/de/index/entsorgung_recycling.html","Glas":"X","Adresse":"Seefeldstrasse 152","PLZ":"8008","Tel":"044 645 77 77","Öl":"X","Name":"Seefeldstrasse 152 UFC"}}
,{"type":"Feature","geometry":{"type":"Point","coordinates":[8.55082514034788,47.3645719324421]},"properties":{"Metall":"X","Ort":"Zürich","www":"http://www.stadt-zuerich.ch/ted/de/index/entsorgung_recycling.html","Glas":"X","Adresse":"Mühlebachstrasse 35","PLZ":"8008","Tel":"044 645 77 77","Öl":"","Name":"Mühlebachstrasse 35"}}
,{"type":"Feature","geometry":{"type":"Point","coordinates":[8.51701816285441,47.3612946315325]},"properties":{"Metall":"X","Ort":"Zürich","www":"http://www.stadt-zuerich.ch/ted/de/index/entsorgung_recycling.html","Glas":"X","Adresse":"Bachtobelstrasse 10","PLZ":"8045","Tel":"044 645 77 77","Öl":"","Name":"Bachtobelstr. vis-à-vis 10/ Uetlibergst"}}
,{"type":"Feature","geometry":{"type":"Point","coordinates":[8.5166346770889,47.3661987567226]},"properties":{"Metall":"X","Ort":"Zürich","www":"http://www.stadt-zuerich.ch/ted/de/index/entsorgung_recycling.html","Glas":"X","Adresse":"Berneggweg 8","PLZ":"8045","Tel":"044 645 77 77","Öl":"","Name":"Berneggweg vis-à-vis 8"}}
,{"type":"Feature","geometry":{"type":"Point","coordinates":[8.58435434263161,47.4076908508345]},"properties":{"Metall":"X","Ort":"Zürich","www":"http://www.stadt-zuerich.ch/ted/de/index/entsorgung_recycling.html","Glas":"X","Adresse":"Ueberlandstrasse 381","PLZ":"8051","Tel":"044 645 77 77","Öl":"","Name":"Ueberlandstrasse 381"}}
,{"type":"Feature","geometry":{"type":"Point","coordinates":[8.54995959201905,47.3925911974705]},"properties":{"Metall":"X","Ort":"Zürich","www":"http://www.stadt-zuerich.ch/ted/de/index/entsorgung_recycling.html","Glas":"X","Adresse":"Letzistrasse 50","PLZ":"8057","Tel":"044 645 77 77","Öl":"","Name":"Letzistrasse vis-à-vis Nr. 50"}}
,{"type":"Feature","geometry":{"type":"Point","coordinates":[8.54024007064486,47.3953108852483]},"properties":{"Metall":"X","Ort":"Zürich","www":"http://www.stadt-zuerich.ch/ted/de/index/entsorgung_recycling.html","Glas":"X","Adresse":"Milchbuckstrasse 2","PLZ":"8057","Tel":"044 645 77 77","Öl":"","Name":"Milchbuckstr. 2 / Schaffhauserstr."}}
,{"type":"Feature","geometry":{"type":"Point","coordinates":[8.52548727751791,47.3916277273371]},"properties":{"Metall":"X","Ort":"Zürich","www":"http://www.stadt-zuerich.ch/ted/de/index/entsorgung_recycling.html","Glas":"X","Adresse":"Hönggerstrasse 41","PLZ":"8037","Tel":"044 645 77 77","Öl":"","Name":"Hönggerstrasse vis-à-vis 41 / Leutholdstr."}}
,{"type":"Feature","geometry":{"type":"Point","coordinates":[8.54917178263279,47.3833967375905]},"properties":{"Metall":"X","Ort":"Zürich","www":"http://www.stadt-zuerich.ch/ted/de/index/entsorgung_recycling.html","Glas":"X","Adresse":"Vogelsangstrasse 33","PLZ":"8006","Tel":"044 645 77 77","Öl":"","Name":"Vogelsang- 33 / Gladbachstrasse"}}
,{"type":"Feature","geometry":{"type":"Point","coordinates":[8.54659528258573,47.3798683996856]},"properties":{"Metall":"X","Ort":"Zürich","www":"http://www.stadt-zuerich.ch/ted/de/index/entsorgung_recycling.html","Glas":"X","Adresse":"Sonneggstrasse 26","PLZ":"8006","Tel":"044 645 77 77","Öl":"","Name":"Sonneggstrasse 26"}}
,{"type":"Feature","geometry":{"type":"Point","coordinates":[8.5747442074709,47.3833007836159]},"properties":{"Metall":"X","Ort":"Zürich","www":"http://www.stadt-zuerich.ch/ted/de/index/entsorgung_recycling.html","Glas":"X","Adresse":"Zürichbergstrasse 196","PLZ":"8044","Tel":"044 645 77 77","Öl":"","Name":"Parkplatz Zoo, Zürichbergstrasse 196"}}
,{"type":"Feature","geometry":{"type":"Point","coordinates":[8.56012861916803,47.3766613678554]},"properties":{"Metall":"X","Ort":"Zürich","www":"http://www.stadt-zuerich.ch/ted/de/index/entsorgung_recycling.html","Glas":"X","Adresse":"Zürichbergstrasse 80","PLZ":"8044","Tel":"044 645 77 77","Öl":"X","Name":"Vorderberg/Zürichbergstrasse vis-à-vis 80"}}
,{"type":"Feature","geometry":{"type":"Point","coordinates":[8.58379267147936,47.3581686823196]},"properties":{"Metall":"X","Ort":"Zürich","www":"http://www.stadt-zuerich.ch/ted/de/index/entsorgung_recycling.html","Glas":"X","Adresse":"Drusbergstrasse 102","PLZ":"8053","Tel":"044 645 77 77","Öl":"","Name":"Drusbergstrasse 102 / Witikonerstrasse"}}
,{"type":"Feature","geometry":{"type":"Point","coordinates":[8.55200980229922,47.3740684123753]},"properties":{"Metall":"X","Ort":"Zürich","www":"http://www.stadt-zuerich.ch/ted/de/index/entsorgung_recycling.html","Glas":"X","Adresse":"Schönleinstrasse 14","PLZ":"8032","Tel":"044 645 77 77","Öl":"","Name":"Freiestrasse / Schönleinstrasse 14"}}
,{"type":"Feature","geometry":{"type":"Point","coordinates":[8.54217721762873,47.3759618222865]},"properties":{"Metall":"X","Ort":"Zürich","www":"http://www.stadt-zuerich.ch/ted/de/index/entsorgung_recycling.html","Glas":"X","Adresse":"Bahnhofquai 5","PLZ":"8001","Tel":"044 645 77 77","Öl":"","Name":"Bahnhofquai / Mühlesteg"}}
,{"type":"Feature","geometry":{"type":"Point","coordinates":[8.51925733032451,47.3685687288535]},"properties":{"Metall":"X","Ort":"Zürich","www":"http://www.stadt-zuerich.ch/ted/de/index/entsorgung_recycling.html","Glas":"X","Adresse":"Schlossgasse 22","PLZ":"8003","Tel":"044 645 77 77","Öl":"","Name":"Schlossgasse vis-à-vis 22 / Steinstrasse"}}
,{"type":"Feature","geometry":{"type":"Point","coordinates":[8.5315926860422,47.3786710780315]},"properties":{"Metall":"X","Ort":"Zürich","www":"http://www.stadt-zuerich.ch/ted/de/index/entsorgung_recycling.html","Glas":"X","Adresse":"Lagerstrasse 55","PLZ":"8004","Tel":"044 645 77 77","Öl":"X","Name":"Lagerstrasse vis-à-vis 55"}}
,{"type":"Feature","geometry":{"type":"Point","coordinates":[8.52341867500641,47.3785142871734]},"properties":{"Metall":"X","Ort":"Zürich","www":"http://www.stadt-zuerich.ch/ted/de/index/entsorgung_recycling.html","Glas":"X","Adresse":"Hohlstrasse 90","PLZ":"8004","Tel":"044 645 77 77","Öl":"","Name":"Hohlstrasse vis-à-vis 90"}}
,{"type":"Feature","geometry":{"type":"Point","coordinates":[8.51906704082852,47.3774666825542]},"properties":{"Metall":"X","Ort":"Zürich","www":"http://www.stadt-zuerich.ch/ted/de/index/entsorgung_recycling.html","Glas":"X","Adresse":"Kanzleistrasse 137","PLZ":"8004","Tel":"044 645 77 77","Öl":"","Name":"Kanzlei- / Hermann-Greulichstrasse"}}
,{"type":"Feature","geometry":{"type":"Point","coordinates":[8.49623494548255,47.4260533711077]},"properties":{"Metall":"","Ort":"Zürich","www":"http://www.stadt-zuerich.ch/ted/de/index/entsorgung_recycling.html","Glas":"X","Adresse":"Mühlackerstrasse 122","PLZ":"8046","Tel":"044 645 77 77","Öl":"X","Name":"Mühlackerstrasse Buswendeschleife"}}
,{"type":"Feature","geometry":{"type":"Point","coordinates":[8.49773278960723,47.3880896176342]},"properties":{"Metall":"X","Ort":"Zürich","www":"http://www.stadt-zuerich.ch/ted/de/index/entsorgung_recycling.html","Glas":"X","Adresse":"Hohlstrasse 465","PLZ":"8048","Tel":"044 645 77 77","Öl":"X","Name":"Letzipark / Hohlstr. 465"}}
,{"type":"Feature","geometry":{"type":"Point","coordinates":[8.47290323122997,47.3869834737274]},"properties":{"Metall":"X","Ort":"Zürich","www":"http://www.stadt-zuerich.ch/ted/de/index/entsorgung_recycling.html","Glas":"X","Adresse":"Rautistrasse 345","PLZ":"8048","Tel":"044 645 77 77","Öl":"","Name":"Rautistrasse 349"}}
,{"type":"Feature","geometry":{"type":"Point","coordinates":[8.48417470362827,47.3735063175288]},"properties":{"Metall":"X","Ort":"Zürich","www":"http://www.stadt-zuerich.ch/ted/de/index/entsorgung_recycling.html","Glas":"X","Adresse":"Triemlistrasse 22","PLZ":"8047","Tel":"044 645 77 77","Öl":"","Name":"Hagenbuchrain / Triemlistrasse 18"}}
,{"type":"Feature","geometry":{"type":"Point","coordinates":[8.55023015264739,47.3560742958514]},"properties":{"Metall":"","Ort":"Zürich","www":"http://www.stadt-zuerich.ch/ted/de/index/entsorgung_recycling.html","Glas":"X","Adresse":"Höschgasse 4","PLZ":"8008","Tel":"044 645 77 77","Öl":"","Name":"Höschgasse 4"}}
,{"type":"Feature","geometry":{"type":"Point","coordinates":[8.55132501365605,47.3535900390937]},"properties":{"Metall":"","Ort":"Zürich","www":"http://www.stadt-zuerich.ch/ted/de/index/entsorgung_recycling.html","Glas":"X","Adresse":"Bellerivestrasse 158","PLZ":"8008","Tel":"044 645 77 77","Öl":"","Name":"Bellerivestrasse 158"}}
,{"type":"Feature","geometry":{"type":"Point","coordinates":[8.53568115070304,47.3612221823953]},"properties":{"Metall":"","Ort":"Zürich","www":"http://www.stadt-zuerich.ch/ted/de/index/entsorgung_recycling.html","Glas":"X","Adresse":"Mythenquai 21","PLZ":"8002","Tel":"044 645 77 77","Öl":"","Name":"Mythenquai 21"}}
,{"type":"Feature","geometry":{"type":"Point","coordinates":[8.51314635656083,47.3268430749501]},"properties":{"Metall":"X","Ort":"Zürich","www":"http://www.stadt-zuerich.ch/ted/de/index/entsorgung_recycling.html","Glas":"X","Adresse":"Leimbachstrasse 160","PLZ":"8041","Tel":"044 645 77 77","Öl":"X","Name":"Leimbachstrasse 160 / Klebestrasse"}}
,{"type":"Feature","geometry":{"type":"Point","coordinates":[8.52761178774339,47.3348661966192]},"properties":{"Metall":"X","Ort":"Zürich","www":"http://www.stadt-zuerich.ch/ted/de/index/entsorgung_recycling.html","Glas":"X","Adresse":"Paradiesstrasse 45","PLZ":"8038","Tel":"044 645 77 77","Öl":"","Name":"Paradiesstrasse 45, Parkplatz Krankenheim"}}
,{"type":"Feature","geometry":{"type":"Point","coordinates":[8.53016830659579,47.3427578479202]},"properties":{"Metall":"X","Ort":"Zürich","www":"http://www.stadt-zuerich.ch/ted/de/index/entsorgung_recycling.html","Glas":"X","Adresse":"Tannenrauchstrasse 116","PLZ":"8038","Tel":"044 645 77 77","Öl":"","Name":"Tannenrauchstrasse / Rainfussweg 3"}}
,{"type":"Feature","geometry":{"type":"Point","coordinates":[8.50883297576167,47.3558298315657]},"properties":{"Metall":"X","Ort":"Zürich","www":"http://www.stadt-zuerich.ch/ted/de/index/entsorgung_recycling.html","Glas":"X","Adresse":"Hegianwandweg 75","PLZ":"8045","Tel":"044 645 77 77","Öl":"","Name":"Adolf-Lüchinger-Strasse / Hegianwandweg 75"}}
,{"type":"Feature","geometry":{"type":"Point","coordinates":[8.54420392995217,47.4088556035768]},"properties":{"Metall":"X","Ort":"Zürich","www":"http://www.stadt-zuerich.ch/ted/de/index/entsorgung_recycling.html","Glas":"X","Adresse":"Baumackerstrasse 28","PLZ":"8050","Tel":"044 645 77 77","Öl":"","Name":"Baumacker- vis-à-vis 28 / Schulstrasse"}}
,{"type":"Feature","geometry":{"type":"Point","coordinates":[8.54114013703638,47.3997548744099]},"properties":{"Metall":"X","Ort":"Zürich","www":"http://www.stadt-zuerich.ch/ted/de/index/entsorgung_recycling.html","Glas":"X","Adresse":"Anna-Heer-Strasse 14","PLZ":"8057","Tel":"044 645 77 77","Öl":"","Name":"Anna-Heer-Strasse vis-à-vis 12"}}
,{"type":"Feature","geometry":{"type":"Point","coordinates":[8.53555342369306,47.4070221102528]},"properties":{"Metall":"X","Ort":"Zürich","www":"http://www.stadt-zuerich.ch/ted/de/index/entsorgung_recycling.html","Glas":"X","Adresse":"Hoffeld 46","PLZ":"8057","Tel":"044 645 77 77","Öl":"X","Name":"Hoffeld vis-à-vis 46 / Birchstr."}}
,{"type":"Feature","geometry":{"type":"Point","coordinates":[8.48920014769487,47.3960021951729]},"properties":{"Metall":"X","Ort":"Zürich","www":"http://www.stadt-zuerich.ch/ted/de/index/entsorgung_recycling.html","Glas":"X","Adresse":"Grünauring 25","PLZ":"8064","Tel":"044 645 77 77","Öl":"","Name":"Grünauring vis-à-vis Nr.  25"}}
,{"type":"Feature","geometry":{"type":"Point","coordinates":[8.52532694936612,47.3941568599217]},"properties":{"Metall":"X","Ort":"Zürich","www":"http://www.stadt-zuerich.ch/ted/de/index/entsorgung_recycling.html","Glas":"X","Adresse":"Rosengartenstrasse 10","PLZ":"8037","Tel":"044 645 77 77","Öl":"","Name":"Rosengartenstr. 10 / unter Brücke"}}
,{"type":"Feature","geometry":{"type":"Point","coordinates":[8.54560879197151,47.3655286899981]},"properties":{"Metall":"","Ort":"Zürich","www":"http://www.stadt-zuerich.ch/ted/de/index/entsorgung_recycling.html","Glas":"X","Adresse":"Utoquai 21","PLZ":"8001","Tel":"044 645 77 77","Öl":"","Name":"Utoquai 21"}}
,{"type":"Feature","geometry":{"type":"Point","coordinates":[8.51908082166809,47.374137633493]},"properties":{"Metall":"X","Ort":"Zürich","www":"http://www.stadt-zuerich.ch/ted/de/index/entsorgung_recycling.html","Glas":"X","Adresse":"Meinrad-Lienert-Strasse 1","PLZ":"8003","Tel":"044 645 77 77","Öl":"","Name":"Meinrad-Lienert-Strasse vis-à-vis 1"}}
,{"type":"Feature","geometry":{"type":"Point","coordinates":[8.51435496447165,47.3742994286907]},"properties":{"Metall":"X","Ort":"Zürich","www":"http://www.stadt-zuerich.ch/ted/de/index/entsorgung_recycling.html","Glas":"X","Adresse":"Idaplatz 4","PLZ":"8003","Tel":"044 645 77 77","Öl":"","Name":"Idaplatz"}}
,{"type":"Feature","geometry":{"type":"Point","coordinates":[8.50332013304886,47.3734122826364]},"properties":{"Metall":"X","Ort":"Zürich","www":"http://www.stadt-zuerich.ch/ted/de/index/entsorgung_recycling.html","Glas":"X","Adresse":"Gutstrasse 149","PLZ":"8055","Tel":"044 645 77 77","Öl":"X","Name":"Gutstrasse 149"}}
,{"type":"Feature","geometry":{"type":"Point","coordinates":[8.50751942225521,47.4012132010306]},"properties":{"Metall":"X","Ort":"Zürich","www":"http://www.stadt-zuerich.ch/ted/de/index/entsorgung_recycling.html","Glas":"X","Adresse":"Appenzellerstrasse 73","PLZ":"8049","Tel":"044 645 77 77","Öl":"","Name":"Appenzellerstrasse 73"}}
,{"type":"Feature","geometry":{"type":"Point","coordinates":[8.49062920042279,47.4053080397563]},"properties":{"Metall":"X","Ort":"Zürich","www":"http://www.stadt-zuerich.ch/ted/de/index/entsorgung_recycling.html","Glas":"X","Adresse":"Riedhofstrasse 104","PLZ":"8049","Tel":"044 645 77 77","Öl":"","Name":"Riedhofstr. vis-à-vis 104 / Schulhaus"}}
,{"type":"Feature","geometry":{"type":"Point","coordinates":[8.51230646009805,47.4224600354544]},"properties":{"Metall":"X","Ort":"Zürich","www":"http://www.stadt-zuerich.ch/ted/de/index/entsorgung_recycling.html","Glas":"X","Adresse":"Im Isengrind 24","PLZ":"8046","Tel":"044 645 77 77","Öl":"","Name":"im Isengrind vis-à-vis 24"}}
,{"type":"Feature","geometry":{"type":"Point","coordinates":[8.48149814834461,47.3916644350262]},"properties":{"Metall":"X","Ort":"Zürich","www":"http://www.stadt-zuerich.ch/ted/de/index/entsorgung_recycling.html","Glas":"X","Adresse":"Hohlstrasse 665","PLZ":"8048","Tel":"044 645 77 77","Öl":"","Name":"Hohlstrasse 665 / Werdhölzlistr."}}
,{"type":"Feature","geometry":{"type":"Point","coordinates":[8.55119279527574,47.3590363267593]},"properties":{"Metall":"X","Ort":"Zürich","www":"http://www.stadt-zuerich.ch/ted/de/index/entsorgung_recycling.html","Glas":"X","Adresse":"Mittelstrasse 6","PLZ":"8008","Tel":"044 645 77 77","Öl":"","Name":"Mittelstrasse / Klausstrasse"}}
,{"type":"Feature","geometry":{"type":"Point","coordinates":[8.54753227603698,47.3608084443362]},"properties":{"Metall":"","Ort":"Zürich","www":"http://www.stadt-zuerich.ch/ted/de/index/entsorgung_recycling.html","Glas":"X","Adresse":"Seefeldquai 8","PLZ":"8008","Tel":"044 645 77 77","Öl":"","Name":"Seefeldquai 8"}}
,{"type":"Feature","geometry":{"type":"Point","coordinates":[8.53025184241019,47.3642915189273]},"properties":{"Metall":"X","Ort":"Zürich","www":"http://www.stadt-zuerich.ch/ted/de/index/entsorgung_recycling.html","Glas":"X","Adresse":"Grütlistrasse 4","PLZ":"8002","Tel":"044 645 77 77","Öl":"","Name":"Grütlstrasse / Bederstrasse"}}
,{"type":"Feature","geometry":{"type":"Point","coordinates":[8.57043299628227,47.4035463865014]},"properties":{"Metall":"X","Ort":"Zürich","www":"http://www.stadt-zuerich.ch/ted/de/index/entsorgung_recycling.html","Glas":"X","Adresse":"Bocklerstrasse 14","PLZ":"8051","Tel":"044 645 77 77","Öl":"X","Name":"Bocklerstrasse 14, Parklplatz"}}
,{"type":"Feature","geometry":{"type":"Point","coordinates":[8.53084928037904,47.4024791950572]},"properties":{"Metall":"X","Ort":"Zürich","www":"http://www.stadt-zuerich.ch/ted/de/index/entsorgung_recycling.html","Glas":"X","Adresse":"Käferholzstrasse 44","PLZ":"8057","Tel":"044 645 77 77","Öl":"X","Name":"Käferholzstrasse 44 / Parkplatz"}}
,{"type":"Feature","geometry":{"type":"Point","coordinates":[8.53238643092906,47.3986237559264]},"properties":{"Metall":"X","Ort":"Zürich","www":"http://www.stadt-zuerich.ch/ted/de/index/entsorgung_recycling.html","Glas":"X","Adresse":"Rötelstrasse 1","PLZ":"8057","Tel":"044 645 77 77","Öl":"","Name":"Bucheggplatz 1 / Rötelstrasse"}}
,{"type":"Feature","geometry":{"type":"Point","coordinates":[8.56152177958766,47.3604442136991]},"properties":{"Metall":"X","Ort":"Zürich","www":"http://www.stadt-zuerich.ch/ted/de/index/entsorgung_recycling.html","Glas":"X","Adresse":"Hammerstrasse 43","PLZ":"8032","Tel":"044 645 77 77","Öl":"","Name":"Hammer- / Drahtzugstrasse"}}
,{"type":"Feature","geometry":{"type":"Point","coordinates":[8.52980492519957,47.3749939421635]},"properties":{"Metall":"X","Ort":"Zürich","www":"http://www.stadt-zuerich.ch/ted/de/index/entsorgung_recycling.html","Glas":"X","Adresse":"St. Jakobstrasse 41","PLZ":"8004","Tel":"044 645 77 77","Öl":"X","Name":"St. Jakobstrasse UFC"}}
,{"type":"Feature","geometry":{"type":"Point","coordinates":[8.51288832894331,47.3672339452872]},"properties":{"Metall":"X","Ort":"Zürich","www":"http://www.stadt-zuerich.ch/ted/de/index/entsorgung_recycling.html","Glas":"X","Adresse":"Talwiesenstrasse 118","PLZ":"8055","Tel":"044 645 77 77","Öl":"X","Name":"Talwiesenstrasse vis-à-vis 118"}}
,{"type":"Feature","geometry":{"type":"Point","coordinates":[8.50078144870597,47.368947129392]},"properties":{"Metall":"X","Ort":"Zürich","www":"http://www.stadt-zuerich.ch/ted/de/index/entsorgung_recycling.html","Glas":"X","Adresse":"Birmensdorferstrasse 432","PLZ":"8055","Tel":"044 645 77 77","Öl":"","Name":"Birmensdorferstrasse 432"}}
,{"type":"Feature","geometry":{"type":"Point","coordinates":[8.53666859548381,47.4257571218258]},"properties":{"Metall":"X","Ort":"Zürich","www":"http://www.stadt-zuerich.ch/ted/de/index/entsorgung_recycling.html","Glas":"X","Adresse":"Köschenrütistrasse 72","PLZ":"8052","Tel":"044 645 77 77","Öl":"","Name":"Köschenrütistrasse 74 UFC"}}
,{"type":"Feature","geometry":{"type":"Point","coordinates":[8.48249867735057,47.4156810535922]},"properties":{"Metall":"X","Ort":"Zürich","www":"http://www.stadt-zuerich.ch/ted/de/index/entsorgung_recycling.html","Glas":"X","Adresse":"Im Stelzenacker 11","PLZ":"8049","Tel":"044 645 77 77","Öl":"X","Name":"Stelzenacker, Kehrplatz"}}
,{"type":"Feature","geometry":{"type":"Point","coordinates":[8.48090383872463,47.4093540170345]},"properties":{"Metall":"X","Ort":"Zürich","www":"http://www.stadt-zuerich.ch/ted/de/index/entsorgung_recycling.html","Glas":"X","Adresse":"Riedhofstrasse 378","PLZ":"8049","Tel":"044 645 77 77","Öl":"","Name":"Riedhofstrasse vis-à-vis 378"}}
,{"type":"Feature","geometry":{"type":"Point","coordinates":[8.52311696899742,47.4238399384379]},"properties":{"Metall":"X","Ort":"Zürich","www":"http://www.stadt-zuerich.ch/ted/de/index/entsorgung_recycling.html","Glas":"X","Adresse":"Schwandenholzstrasse 194","PLZ":"8046","Tel":"044 645 77 77","Öl":"","Name":"vis a vis Schwandenholzstrasse 194"}}
,{"type":"Feature","geometry":{"type":"Point","coordinates":[8.47381470399466,47.3923094071958]},"properties":{"Metall":"X","Ort":"Zürich","www":"http://www.stadt-zuerich.ch/ted/de/index/entsorgung_recycling.html","Glas":"X","Adresse":"Ernst-Zöbeli-Strasse 4","PLZ":"8048","Tel":"044 645 77 77","Öl":"","Name":"Ernst-Zöbeli-Strasse vis-à-vis 4"}}
,{"type":"Feature","geometry":{"type":"Point","coordinates":[8.53674966170725,47.364243124253]},"properties":{"Metall":"","Ort":"Zürich","www":"http://www.stadt-zuerich.ch/ted/de/index/entsorgung_recycling.html","Glas":"X","Adresse":"General-Guisan-Quai 31","PLZ":"8002","Tel":"044 645 77 77","Öl":"","Name":"General-Guisan-Quai 31"}}
,{"type":"Feature","geometry":{"type":"Point","coordinates":[8.53045209988621,47.3398137216182]},"properties":{"Metall":"X","Ort":"Zürich","www":"http://www.stadt-zuerich.ch/ted/de/index/entsorgung_recycling.html","Glas":"X","Adresse":"Alte Kalchbühlstrasse 15","PLZ":"8038","Tel":"044 645 77 77","Öl":"X","Name":"Alte Kalchbühlstrasse 15 bei Coop"}}
,{"type":"Feature","geometry":{"type":"Point","coordinates":[8.53579250814369,47.3511267284272]},"properties":{"Metall":"","Ort":"Zürich","www":"http://www.stadt-zuerich.ch/ted/de/index/entsorgung_recycling.html","Glas":"X","Adresse":"Mythenquai 307","PLZ":"8038","Tel":"044 645 77 77","Öl":"","Name":"Mythenquai 307"}}
,{"type":"Feature","geometry":{"type":"Point","coordinates":[8.56391530431532,47.4155015370925]},"properties":{"Metall":"X","Ort":"Zürich","www":"http://www.stadt-zuerich.ch/ted/de/index/entsorgung_recycling.html","Glas":"X","Adresse":"Hagenholzstrasse 110","PLZ":"8050","Tel":"044 645 77 77","Öl":"X","Name":"Hagenholzstrasse 110"}}
,{"type":"Feature","geometry":{"type":"Point","coordinates":[8.54940369103937,47.4097592022922]},"properties":{"Metall":"X","Ort":"Zürich","www":"http://www.stadt-zuerich.ch/ted/de/index/entsorgung_recycling.html","Glas":"X","Adresse":"Dörflistrasse 10","PLZ":"8050","Tel":"044 645 77 77","Öl":"X","Name":"Dörflistrasse 10 via a vis Parkplatz"}}
,{"type":"Feature","geometry":{"type":"Point","coordinates":[8.59138670534712,47.4050842918861]},"properties":{"Metall":"X","Ort":"Zürich","www":"http://www.stadt-zuerich.ch/ted/de/index/entsorgung_recycling.html","Glas":"X","Adresse":"Grosswiesenstrasse 155","PLZ":"8051","Tel":"044 645 77 77","Öl":"","Name":"Hirzenbach- / Grosswiesenstrasse 155"}}
,{"type":"Feature","geometry":{"type":"Point","coordinates":[8.59168822791525,47.3982090044835]},"properties":{"Metall":"X","Ort":"Zürich","www":"http://www.stadt-zuerich.ch/ted/de/index/entsorgung_recycling.html","Glas":"X","Adresse":"Dübendorfstrasse 350","PLZ":"8051","Tel":"044 645 77 77","Öl":"","Name":"Dübendorfstr. 350 / Parkplatz Mattenhof"}}
,{"type":"Feature","geometry":{"type":"Point","coordinates":[8.55085985802215,47.4046180019383]},"properties":{"Metall":"X","Ort":"Zürich","www":"http://www.stadt-zuerich.ch/ted/de/index/entsorgung_recycling.html","Glas":"X","Adresse":"Viktoriastrasse 34","PLZ":"8057","Tel":"044 645 77 77","Öl":"","Name":"Viktoriastrasse 34"}}
,{"type":"Feature","geometry":{"type":"Point","coordinates":[8.54389262996114,47.3887545225124]},"properties":{"Metall":"X","Ort":"Zürich","www":"http://www.stadt-zuerich.ch/ted/de/index/entsorgung_recycling.html","Glas":"X","Adresse":"Scheuchzerstrasse 98","PLZ":"8006","Tel":"044 645 77 77","Öl":"","Name":"Scheuchzerstrasse vis-à-vis 98"}}
,{"type":"Feature","geometry":{"type":"Point","coordinates":[8.53645842125991,47.387296253771]},"properties":{"Metall":"X","Ort":"Zürich","www":"http://www.stadt-zuerich.ch/ted/de/index/entsorgung_recycling.html","Glas":"X","Adresse":"Nordstrasse 67","PLZ":"8006","Tel":"044 645 77 77","Öl":"X","Name":"Kronenstrasse / Nordstrasse 67, im Park"}}
,{"type":"Feature","geometry":{"type":"Point","coordinates":[8.54399680192472,47.3829246640835]},"properties":{"Metall":"X","Ort":"Zürich","www":"http://www.stadt-zuerich.ch/ted/de/index/entsorgung_recycling.html","Glas":"X","Adresse":"Sonneggstrasse 84","PLZ":"8006","Tel":"044 645 77 77","Öl":"","Name":"Sonneggstrasse / Weinbergstrasse"}}
,{"type":"Feature","geometry":{"type":"Point","coordinates":[8.59333748088645,47.3594048980977]},"properties":{"Metall":"X","Ort":"Zürich","www":"http://www.stadt-zuerich.ch/ted/de/index/entsorgung_recycling.html","Glas":"X","Adresse":"Witikonerstrasse 390","PLZ":"8053","Tel":"044 645 77 77","Öl":"X","Name":"Witikonerstrasse 390 / Parkplatz"}}
,{"type":"Feature","geometry":{"type":"Point","coordinates":[8.60077022972669,47.3554353589101]},"properties":{"Metall":"X","Ort":"Zürich","www":"http://www.stadt-zuerich.ch/ted/de/index/entsorgung_recycling.html","Glas":"X","Adresse":"Trichtenhausenstrasse 93","PLZ":"8053","Tel":"044 645 77 77","Öl":"","Name":"Trichtenhausenstr.93 / Kienastenwiesweg"}}
,{"type":"Feature","geometry":{"type":"Point","coordinates":[8.53689031673002,47.3767678130937]},"properties":{"Metall":"X","Ort":"Zürich","www":"http://www.stadt-zuerich.ch/ted/de/index/entsorgung_recycling.html","Glas":"X","Adresse":"Gessnerallee 36","PLZ":"8001","Tel":"044 645 77 77","Öl":"","Name":"Gessnerallee vis-à-vis 36"}}
,{"type":"Feature","geometry":{"type":"Point","coordinates":[8.51178550089858,47.3729560907831]},"properties":{"Metall":"X","Ort":"Zürich","www":"http://www.stadt-zuerich.ch/ted/de/index/entsorgung_recycling.html","Glas":"X","Adresse":"Bertastrasse 59","PLZ":"8003","Tel":"044 645 77 77","Öl":"","Name":"Bertastrasse vis-à-vis 59"}}
,{"type":"Feature","geometry":{"type":"Point","coordinates":[8.5126938923273,47.3759789929444]},"properties":{"Metall":"X","Ort":"Zürich","www":"http://www.stadt-zuerich.ch/ted/de/index/entsorgung_recycling.html","Glas":"X","Adresse":"Fritschistrasse 11","PLZ":"8003","Tel":"044 645 77 77","Öl":"","Name":"Fritschistrasse vis-à-vis 11"}}
,{"type":"Feature","geometry":{"type":"Point","coordinates":[8.530665749018,47.3831954161291]},"properties":{"Metall":"X","Ort":"Zürich","www":"http://www.stadt-zuerich.ch/ted/de/index/entsorgung_recycling.html","Glas":"X","Adresse":"Josefstrasse 92","PLZ":"8005","Tel":"044 645 77 77","Öl":"","Name":"Josefstrasse 92"}}
,{"type":"Feature","geometry":{"type":"Point","coordinates":[8.52569344862784,47.3874520519757]},"properties":{"Metall":"X","Ort":"Zürich","www":"http://www.stadt-zuerich.ch/ted/de/index/entsorgung_recycling.html","Glas":"X","Adresse":"Heinrichstrasse 200","PLZ":"8005","Tel":"044 645 77 77","Öl":"X","Name":"Heinrichstrasse 200, unter Viaduktbögen"}}
,{"type":"Feature","geometry":{"type":"Point","coordinates":[8.51829019476544,47.3788888837384]},"properties":{"Metall":"X","Ort":"Zürich","www":"http://www.stadt-zuerich.ch/ted/de/index/entsorgung_recycling.html","Glas":"X","Adresse":"Erismannstrasse 31","PLZ":"8004","Tel":"044 645 77 77","Öl":"X","Name":"Erismannstrasse 31"}}
,{"type":"Feature","geometry":{"type":"Point","coordinates":[8.51470040948879,47.3782900412821]},"properties":{"Metall":"X","Ort":"Zürich","www":"http://www.stadt-zuerich.ch/ted/de/index/entsorgung_recycling.html","Glas":"X","Adresse":"Kochstrasse 21","PLZ":"8004","Tel":"044 645 77 77","Öl":"","Name":"Kochstrasse 21"}}
,{"type":"Feature","geometry":{"type":"Point","coordinates":[8.52843062113694,47.376227296545]},"properties":{"Metall":"X","Ort":"Zürich","www":"http://www.stadt-zuerich.ch/ted/de/index/entsorgung_recycling.html","Glas":"X","Adresse":"Müllerstrasse 71","PLZ":"8004","Tel":"044 645 77 77","Öl":"","Name":"Müllerstrasse 71"}}
,{"type":"Feature","geometry":{"type":"Point","coordinates":[8.51836206622908,47.3755553361371]},"properties":{"Metall":"X","Ort":"Zürich","www":"http://www.stadt-zuerich.ch/ted/de/index/entsorgung_recycling.html","Glas":"X","Adresse":"Seebahnstrasse 171","PLZ":"8004","Tel":"044 645 77 77","Öl":"","Name":"Lochergut / Seebahnstrasse 171 UFC"}}
,{"type":"Feature","geometry":{"type":"Point","coordinates":[8.5102805410817,47.3696605099571]},"properties":{"Metall":"X","Ort":"Zürich","www":"http://www.stadt-zuerich.ch/ted/de/index/entsorgung_recycling.html","Glas":"X","Adresse":"Talwiesenstrasse 169","PLZ":"8055","Tel":"044 645 77 77","Öl":"","Name":"Talwiesenstrasse 169 / Birmensdorferstrasse"}}
,{"type":"Feature","geometry":{"type":"Point","coordinates":[8.50943253744408,47.420588764624]},"properties":{"Metall":"X","Ort":"Zürich","www":"http://www.stadt-zuerich.ch/ted/de/index/entsorgung_recycling.html","Glas":"X","Adresse":"Riedenhaldenstrasse 280","PLZ":"8046","Tel":"044 645 77 77","Öl":"X","Name":"Bahnhof Affoltern, Riedenhaldenstr."}}
,{"type":"Feature","geometry":{"type":"Point","coordinates":[8.48091824830307,47.3884314752191]},"properties":{"Metall":"X","Ort":"Zürich","www":"http://www.stadt-zuerich.ch/ted/de/index/entsorgung_recycling.html","Glas":"X","Adresse":"Dachslernstrasse 9","PLZ":"8048","Tel":"044 645 77 77","Öl":"X","Name":"Dachslernstrasse 10 / TAZ Werkhof"}}
,{"type":"Feature","geometry":{"type":"Point","coordinates":[8.57092801564569,47.3483198488143]},"properties":{"Metall":"X","Ort":"Zürich","www":"http://www.stadt-zuerich.ch/ted/de/index/entsorgung_recycling.html","Glas":"X","Adresse":"Bleulerstrasse 70","PLZ":"8008","Tel":"044 645 77 77","Öl":"","Name":"Bleulerstrasse 70"}}
,{"type":"Feature","geometry":{"type":"Point","coordinates":[8.52551158092881,47.361664704566]},"properties":{"Metall":"X","Ort":"Zürich","www":"http://www.stadt-zuerich.ch/ted/de/index/entsorgung_recycling.html","Glas":"X","Adresse":"Klopstockstrasse 23","PLZ":"8002","Tel":"044 645 77 77","Öl":"X","Name":"Klopstockstrasse 23 / Bederstrasse"}}
,{"type":"Feature","geometry":{"type":"Point","coordinates":[8.53057598538388,47.3445710266464]},"properties":{"Metall":"X","Ort":"Zürich","www":"http://www.stadt-zuerich.ch/ted/de/index/entsorgung_recycling.html","Glas":"X","Adresse":"Etzelstrasse 6","PLZ":"8038","Tel":"044 645 77 77","Öl":"","Name":"Etzelstrasse vis-à-vis 6"}}
,{"type":"Feature","geometry":{"type":"Point","coordinates":[8.53528949502789,47.3488150639069]},"properties":{"Metall":"","Ort":"Zürich","www":"http://www.stadt-zuerich.ch/ted/de/index/entsorgung_recycling.html","Glas":"X","Adresse":"Mythenquai 317","PLZ":"8038","Tel":"044 645 77 77","Öl":"","Name":"Mythenquai 317"}}
,{"type":"Feature","geometry":{"type":"Point","coordinates":[8.51059578266995,47.3546261060058]},"properties":{"Metall":"X","Ort":"Zürich","www":"http://www.stadt-zuerich.ch/ted/de/index/entsorgung_recycling.html","Glas":"X","Adresse":"Frauentalweg 39","PLZ":"8045","Tel":"044 645 77 77","Öl":"","Name":"Frauentalweg 39, Höhe Langweid"}}
,{"type":"Feature","geometry":{"type":"Point","coordinates":[8.58552540267084,47.4020842759928]},"properties":{"Metall":"X","Ort":"Zürich","www":"http://www.stadt-zuerich.ch/ted/de/index/entsorgung_recycling.html","Glas":"X","Adresse":"Luchswiesenstrasse 25","PLZ":"8051","Tel":"044 645 77 77","Öl":"X","Name":"Luchswiesenstrasse 25"}}
,{"type":"Feature","geometry":{"type":"Point","coordinates":[8.49515490095635,47.3983495650971]},"properties":{"Metall":"X","Ort":"Zürich","www":"http://www.stadt-zuerich.ch/ted/de/index/entsorgung_recycling.html","Glas":"X","Adresse":"Hardhof 9","PLZ":"8064","Tel":"044 645 77 77","Öl":"X","Name":"Hardhof bei Wasserversorgung"}}
,{"type":"Feature","geometry":{"type":"Point","coordinates":[8.51610946385481,47.3981920429948]},"properties":{"Metall":"X","Ort":"Zürich","www":"http://www.stadt-zuerich.ch/ted/de/index/entsorgung_recycling.html","Glas":"X","Adresse":"Rebbergstrasse 19","PLZ":"8037","Tel":"044 645 77 77","Öl":"","Name":"Rebbergstrasse vis-à-vis 19"}}
,{"type":"Feature","geometry":{"type":"Point","coordinates":[8.52324610663244,47.368738200495]},"properties":{"Metall":"X","Ort":"Zürich","www":"http://www.stadt-zuerich.ch/ted/de/index/entsorgung_recycling.html","Glas":"X","Adresse":"Aegertenstrasse 16","PLZ":"8003","Tel":"044 645 77 77","Öl":"","Name":"Aegertenstrasse vis-à-vis 16"}}
,{"type":"Feature","geometry":{"type":"Point","coordinates":[8.53280912607885,47.3824465200474]},"properties":{"Metall":"X","Ort":"Zürich","www":"http://www.stadt-zuerich.ch/ted/de/index/entsorgung_recycling.html","Glas":"X","Adresse":"Konradstrasse 79","PLZ":"8005","Tel":"044 645 77 77","Öl":"","Name":"Konradstrasse 79 - UFC"}}
,{"type":"Feature","geometry":{"type":"Point","coordinates":[8.5293091192472,47.3790344867638]},"properties":{"Metall":"X","Ort":"Zürich","www":"http://www.stadt-zuerich.ch/ted/de/index/entsorgung_recycling.html","Glas":"X","Adresse":"Tellstrasse 31","PLZ":"8004","Tel":"044 645 77 77","Öl":"X","Name":"Tellstrasse / Militärstrasse UFC"}}
,{"type":"Feature","geometry":{"type":"Point","coordinates":[8.51022482428585,47.3789703215532]},"properties":{"Metall":"X","Ort":"Zürich","www":"http://www.stadt-zuerich.ch/ted/de/index/entsorgung_recycling.html","Glas":"X","Adresse":"Albisriederplatz 6","PLZ":"8004","Tel":"044 645 77 77","Öl":"","Name":"Parkplatz Hardau"}}
,{"type":"Feature","geometry":{"type":"Point","coordinates":[8.5476961059514,47.4276486808299]},"properties":{"Metall":"X","Ort":"Zürich","www":"http://www.stadt-zuerich.ch/ted/de/index/entsorgung_recycling.html","Glas":"X","Adresse":"Stiglenstrasse 50","PLZ":"8052","Tel":"044 645 77 77","Öl":"","Name":"Stiglenstrasse 50 / Parkplatz"}}
,{"type":"Feature","geometry":{"type":"Point","coordinates":[8.53986185811708,47.4238914840355]},"properties":{"Metall":"X","Ort":"Zürich","www":"http://www.stadt-zuerich.ch/ted/de/index/entsorgung_recycling.html","Glas":"X","Adresse":"Birchstrasse 408","PLZ":"8052","Tel":"044 645 77 77","Öl":"","Name":"Birchstrasse vis-à-vis 408"}}
,{"type":"Feature","geometry":{"type":"Point","coordinates":[8.5129140781136,47.4118492644378]},"properties":{"Metall":"X","Ort":"Zürich","www":"http://www.stadt-zuerich.ch/ted/de/index/entsorgung_recycling.html","Glas":"X","Adresse":"Glaubtenstrasse 98","PLZ":"8046","Tel":"044 645 77 77","Öl":"","Name":"Glaubtenstrasse 98"}}
,{"type":"Feature","geometry":{"type":"Point","coordinates":[8.54705465445326,47.3625409199349]},"properties":{"Metall":"","Ort":"Zürich","www":"http://www.stadt-zuerich.ch/ted/de/index/entsorgung_recycling.html","Glas":"X","Adresse":"Utoquai 46","PLZ":"8008","Tel":"044 645 77 77","Öl":"","Name":"Utoquai 46"}}
,{"type":"Feature","geometry":{"type":"Point","coordinates":[8.52439886131518,47.3434329531749]},"properties":{"Metall":"X","Ort":"Zürich","www":"http://www.stadt-zuerich.ch/ted/de/index/entsorgung_recycling.html","Glas":"X","Adresse":"Morgentalstrasse 77","PLZ":"8038","Tel":"044 645 77 77","Öl":"","Name":"Morgentalstrasse / Frohalpstrasse"}}
,{"type":"Feature","geometry":{"type":"Point","coordinates":[8.51727992878705,47.3585556856223]},"properties":{"Metall":"X","Ort":"Zürich","www":"http://www.stadt-zuerich.ch/ted/de/index/entsorgung_recycling.html","Glas":"X","Adresse":"Giesshübelstrasse 106","PLZ":"8045","Tel":"044 645 77 77","Öl":"X","Name":"Giesshübelstr. vis-à-vis 106 / Brunaupark"}}
,{"type":"Feature","geometry":{"type":"Point","coordinates":[8.50839497259082,47.3597287865574]},"properties":{"Metall":"X","Ort":"Zürich","www":"http://www.stadt-zuerich.ch/ted/de/index/entsorgung_recycling.html","Glas":"X","Adresse":"Arbentalstrasse 329","PLZ":"8045","Tel":"044 645 77 77","Öl":"","Name":"Arbentalstrasse 329"}}
,{"type":"Feature","geometry":{"type":"Point","coordinates":[8.55220979721394,47.4083469528396]},"properties":{"Metall":"X","Ort":"Zürich","www":"http://www.stadt-zuerich.ch/ted/de/index/entsorgung_recycling.html","Glas":"X","Adresse":"Tramstrasse 55","PLZ":"8050","Tel":"044 645 77 77","Öl":"","Name":"Kirchenackerweg / Tramstrasse 55"}}
,{"type":"Feature","geometry":{"type":"Point","coordinates":[8.55426577920932,47.4046571230463]},"properties":{"Metall":"X","Ort":"Zürich","www":"http://www.stadt-zuerich.ch/ted/de/index/entsorgung_recycling.html","Glas":"X","Adresse":"Regensbergstrasse 30","PLZ":"8050","Tel":"044 645 77 77","Öl":"","Name":"Regensbergstrasse vis-à-vis 30"}}
,{"type":"Feature","geometry":{"type":"Point","coordinates":[8.5455317074165,47.4134483517116]},"properties":{"Metall":"X","Ort":"Zürich","www":"http://www.stadt-zuerich.ch/ted/de/index/entsorgung_recycling.html","Glas":"X","Adresse":"Wattstrasse 11","PLZ":"8050","Tel":"044 645 77 77","Öl":"","Name":"Wattstrasse vis à vis  11"}}
,{"type":"Feature","geometry":{"type":"Point","coordinates":[8.53716508654645,47.417063250204]},"properties":{"Metall":"X","Ort":"Zürich","www":"http://www.stadt-zuerich.ch/ted/de/index/entsorgung_recycling.html","Glas":"X","Adresse":"Neunbrunnenstrasse 60","PLZ":"8050","Tel":"044 645 77 77","Öl":"","Name":"Neunbrunnenstrasse 60"}}
,{"type":"Feature","geometry":{"type":"Point","coordinates":[8.57116533232379,47.409323061116]},"properties":{"Metall":"X","Ort":"Zürich","www":"http://www.stadt-zuerich.ch/ted/de/index/entsorgung_recycling.html","Glas":"X","Adresse":"Luegislandstrasse 173","PLZ":"8051","Tel":"044 645 77 77","Öl":"X","Name":"Luegislandstrasse 173"}}
,{"type":"Feature","geometry":{"type":"Point","coordinates":[8.59221122173778,47.3997239687757]},"properties":{"Metall":"X","Ort":"Zürich","www":"http://www.stadt-zuerich.ch/ted/de/index/entsorgung_recycling.html","Glas":"X","Adresse":"Helen-Keller-Strasse 6","PLZ":"8051","Tel":"044 645 77 77","Öl":"","Name":"Helen-Keller-Strasse / Altwiesenstr."}}
,{"type":"Feature","geometry":{"type":"Point","coordinates":[8.54612805311007,47.4026215731148]},"properties":{"Metall":"X","Ort":"Zürich","www":"http://www.stadt-zuerich.ch/ted/de/index/entsorgung_recycling.html","Glas":"X","Adresse":"Mimosenstrasse 1","PLZ":"8057","Tel":"044 645 77 77","Öl":"","Name":"Mimosenstrasse vis à vis 1"}}
,{"type":"Feature","geometry":{"type":"Point","coordinates":[8.57214466017826,47.358229679777]},"properties":{"Metall":"X","Ort":"Zürich","www":"http://www.stadt-zuerich.ch/ted/de/index/entsorgung_recycling.html","Glas":"X","Adresse":"Forchstrasse 261","PLZ":"8032","Tel":"044 645 77 77","Öl":"X","Name":"Burgwies / Forchstrasse 261"}}
,{"type":"Feature","geometry":{"type":"Point","coordinates":[8.5657661170336,47.3658391740312]},"properties":{"Metall":"X","Ort":"Zürich","www":"http://www.stadt-zuerich.ch/ted/de/index/entsorgung_recycling.html","Glas":"X","Adresse":"Bergstrasse 142","PLZ":"8032","Tel":"044 645 77 77","Öl":"X","Name":"Bergstrasse vis-à-vis 142 / Jupitersteig"}}
,{"type":"Feature","geometry":{"type":"Point","coordinates":[8.56054424317061,47.3712422272502]},"properties":{"Metall":"X","Ort":"Zürich","www":"http://www.stadt-zuerich.ch/ted/de/index/entsorgung_recycling.html","Glas":"X","Adresse":"Dolderstrasse 39","PLZ":"8032","Tel":"044 645 77 77","Öl":"","Name":"Bungertweg / Dolderstrasse Höhe 39"}}
,{"type":"Feature","geometry":{"type":"Point","coordinates":[8.54703560575199,47.3711118892426]},"properties":{"Metall":"X","Ort":"Zürich","www":"http://www.stadt-zuerich.ch/ted/de/index/entsorgung_recycling.html","Glas":"X","Adresse":"Hirschengraben 13","PLZ":"8001","Tel":"044 645 77 77","Öl":"","Name":"Hirschengraben / untere Zäune"}}
,{"type":"Feature","geometry":{"type":"Point","coordinates":[8.51756115137825,47.3732913749934]},"properties":{"Metall":"X","Ort":"Zürich","www":"http://www.stadt-zuerich.ch/ted/de/index/entsorgung_recycling.html","Glas":"X","Adresse":"Zentralstrasse 76","PLZ":"8003","Tel":"044 645 77 77","Öl":"X","Name":"Zentralstrasse vis-à-vis 76"}}
,{"type":"Feature","geometry":{"type":"Point","coordinates":[8.52711576444734,47.3838136161851]},"properties":{"Metall":"X","Ort":"Zürich","www":"http://www.stadt-zuerich.ch/ted/de/index/entsorgung_recycling.html","Glas":"X","Adresse":"Röntgenstrasse 39","PLZ":"8005","Tel":"044 645 77 77","Öl":"","Name":"Neugasse / Röntgenstrasse"}}
,{"type":"Feature","geometry":{"type":"Point","coordinates":[8.5110623403205,47.3811033773193]},"properties":{"Metall":"X","Ort":"Zürich","www":"http://www.stadt-zuerich.ch/ted/de/index/entsorgung_recycling.html","Glas":"X","Adresse":"Bullingerstrasse 41","PLZ":"8004","Tel":"044 645 77 77","Öl":"","Name":"Bullingerstrasse 41"}}
,{"type":"Feature","geometry":{"type":"Point","coordinates":[8.52880949869566,47.3701519956361]},"properties":{"Metall":"X","Ort":"Zürich","www":"http://www.stadt-zuerich.ch/ted/de/index/entsorgung_recycling.html","Glas":"X","Adresse":"Weberstrasse 3","PLZ":"8004","Tel":"044 645 77 77","Öl":"","Name":"Weberstrasse 3 UFC"}}
,{"type":"Feature","geometry":{"type":"Point","coordinates":[8.54331941419294,47.4249741245491]},"properties":{"Metall":"X","Ort":"Zürich","www":"http://www.stadt-zuerich.ch/ted/de/index/entsorgung_recycling.html","Glas":"X","Adresse":"Hertensteinstrasse 41","PLZ":"8052","Tel":"044 645 77 77","Öl":"","Name":"Hertensteinstr. 41 / Parkplatz"}}
,{"type":"Feature","geometry":{"type":"Point","coordinates":[8.54331784867034,47.4188086196308]},"properties":{"Metall":"X","Ort":"Zürich","www":"http://www.stadt-zuerich.ch/ted/de/index/entsorgung_recycling.html","Glas":"X","Adresse":"Bahnhaldenstrasse 17","PLZ":"8052","Tel":"044 645 77 77","Öl":"X","Name":"Bahnhaldenstr. 17 / Bahnhof Seebach"}}
,{"type":"Feature","geometry":{"type":"Point","coordinates":[8.47561704810563,47.4147985707022]},"properties":{"Metall":"X","Ort":"Zürich","www":"http://www.stadt-zuerich.ch/ted/de/index/entsorgung_recycling.html","Glas":"X","Adresse":"Geeringstrasse 95","PLZ":"8049","Tel":"044 645 77 77","Öl":"","Name":"Geeringstrasse 95, Kehrplatz"}}
,{"type":"Feature","geometry":{"type":"Point","coordinates":[8.50098968869574,47.421224402685]},"properties":{"Metall":"X","Ort":"Zürich","www":"http://www.stadt-zuerich.ch/ted/de/index/entsorgung_recycling.html","Glas":"X","Adresse":"Wehntalerstrasse 597","PLZ":"8046","Tel":"044 645 77 77","Öl":"","Name":"Wehntalerstrasse 597, alte Busschlaufe"}}
]}
